State ,State Code,LGA ,LGA Code,WARD ,Type,classification,SiteID,Site Name ,Latitude ,Longitude ,Status,IDP Location Type,Site Start Date,Expected closing date,Land ownership,Most common type shelter,Reason for displacement Majority,State origin first largest group,LGA origin first largest group,Ward origin first largest group,State origin second largest group,LGA origin second largest group,Ward origin second largest group,Natural hazard risks, Number households , Number individuals 
Adamawa,NGA002,Fufore,NGA002002,Fufore,Collective Settlement/Centre,Planned,AD_S019,fufore camp,9.20771,12.67751,formal,Camp/Camp-like settings,07/07/2015,unknown,Public/Government,government building,insurgency,borno,bama,shehuri / hausari / mairi,borno,gwoza,gavva / agapalwa,none , 339 ," 1,560 "
Adamawa,NGA002,Fufore,NGA002002,Fufore,Collective Settlement/Centre,Planned,AD_S031,wuro ahi,9.217,12.66209,informal,Camp/Camp-like settings,13/12/2014,unknown,Public/Government,government building,insurgency,adamawa,madagali,hyambula,adamawa,madagali,gulak,none , 50 , 390 
Adamawa,NGA002,Fufore,NGA002002,Gurin,Collective Settlement/Centre,Spontaneous,AD_S058,ndula camp,9.03481,12.85323,informal,Camp/Camp-like settings,25/05/2021,unknown,private building,Self-made/Makeshift shelter,insurgency,borno,gwoza,gavva / agapalwa,borno,gwoza,pulka/bokko,none , 110 , 559 
Adamawa,NGA002,Fufore,NGA002002,Pariya,Camp,Spontaneous,AD_S006,daware camp,9.41825,12.59718,informal,Camp/Camp-like settings,19/09/2014,unknown,private building,emergency shelter,insurgency,borno,gwoza,gwoza wakane / bulabulin,borno,gwoza,dure / wala / warabe,none , 435 ," 3,098 "
Adamawa,NGA002,Fufore,NGA002002,Pariya,Collective Settlement/Centre,Spontaneous,AD_S033,anguwan mumuyawa,9.4212,12.5971,informal,Camp/Camp-like settings,21/07/2014,unknown,private building,emergency shelter,insurgency,borno,gwoza,gwoza wakane / bulabulin,adamawa,madagali,hyambula,none , 94 , 684 
Adamawa,NGA002,Girei,NGA002005,Damare,Collective Settlement/Centre,Spontaneous,AD_S035,wadai,9.30613,12.4846,informal,Camp/Camp-like settings,05/09/2014,unknown,private building,Self-made/Makeshift shelter,insurgency,adamawa,madagali,gulak,adamawa,madagali,gulak,none , 59 , 516 
Adamawa,NGA002,Girei,NGA002005,Damare,Collective Settlement/Centre,Spontaneous,AD_S040,angwan kara,9.31974,12.44136,informal,Camp/Camp-like settings,21/05/2017,unknown,private building,Self-made/Makeshift shelter,insurgency,borno,gwoza,gavva / agapalwa,adamawa,madagali,gulak,none , 167 ," 1,012 "
Adamawa,NGA002,Girei,NGA002005,Girei  Ii,Collective Settlement/Centre,Spontaneous,AD_S037,chekamideri,9.37348,12.55781,informal,Camp/Camp-like settings,08/08/2014,unknown,private building,Self-made/Makeshift shelter,insurgency,adamawa,madagali,hyambula,borno,gwoza,bita / izge,none , 122 , 475 
Adamawa,NGA002,Girei,NGA002005,Girei  Ii,Collective Settlement/Centre,Spontaneous,AD_S038,lowcost quarters,9.36791,12.55256,informal,Camp/Camp-like settings,21/04/2015,unknown,Public/Government,government building,insurgency,adamawa,madagali,hyambula,adamawa,madagali,gulak,none , 159 , 774 
Adamawa,NGA002,Girei,NGA002005,Girei I,Collective Settlement/Centre,Spontaneous,AD_S032,segere dutse,9.34264,12.51707,informal,Camp/Camp-like settings,15/04/2016,unknown,private building,Self-made/Makeshift shelter,insurgency,adamawa,madagali,pallam,,,,none , 85 , 556 
Adamawa,NGA002,Girei,NGA002005,Girei I,Collective Settlement/Centre,Spontaneous,AD_S034,nana villa,9.35204,12.51312,informal,Camp/Camp-like settings,22/08/2014,unknown,private building,Self-made/Makeshift shelter,insurgency,adamawa,madagali,hyambula,,,,none , 101 , 493 
Adamawa,NGA002,Girei,NGA002005,Girei I,Collective Settlement/Centre,Spontaneous,AD_S036,ungwan abuja,9.35209,12.51223,informal,Camp/Camp-like settings,17/06/2014,unknown,Public/Government,Self-made/Makeshift shelter,insurgency,adamawa,madagali,madagali,,,,none , 116 , 438 
Adamawa,NGA002,Girei,NGA002005,Modire/ Vinikilang,Camp,Spontaneous,AD_S059,fombina,9.1855,12.2947,informal,Camp/Camp-like settings,05/09/2015,unknown,Public/Government,Self-made/Makeshift shelter,insurgency,,,,,,,none , 38 , 189 
Adamawa,NGA002,Girei,NGA002005,Wuro Dole,Collective Settlement/Centre,Planned,AD_S055,salama housing jabbilamba,9.30329,12.47378,informal,Camp/Camp-like settings,28/04/2021,unknown,private building,Self-made/Makeshift shelter,insurgency,adamawa,madagali,gulak,borno,gwoza,kurana bassa/ngoshe - sama'a,none , 88 , 545 
Adamawa,NGA002,Guyuk,NGA002006,Dukul,Camp,Spontaneous,AD_S056,walu camp,9.85766,11.85627,formal,Camp/Camp-like settings,20/04/2021,unknown,private building,Host Family house,communal clashes,adamawa,guyuk,dukul,,,,none , 50 , 520 
Adamawa,NGA002,Maiha,NGA002011,Maiha Gari,Camp,Planned,AD_S054,c.c. unit,10.01312,13.20889,informal,Camp/Camp-like settings,16/01/2021,unknown,Public/Government,emergency shelter,insurgency,borno,gwoza,gwoza town gadamayo,,,,none , 23 , 321 
Adamawa,NGA002,Maiha,NGA002011,Sorau 'A',Camp,Spontaneous,AD_S057,Wuro Mallum,9.90475,13.22321,informal,Camp/Camp-like settings,13/04/2021,unknown,private building,individual house,natural disaster,adamawa,maiha,sorau 'a',,,,fire, 20 , 106 
Adamawa,NGA002,Mayo - Belwa,NGA002012,Mayo Farang,Camp,Spontaneous,AD_S046,mayo farang,8.95697,12.06087,informal,Camp/Camp-like settings,01/11/2018,unknown,private building,Host Family house,insurgency,adamawa,mayo - belwa,ndikong,,,,none , 43 , 258 
Adamawa,NGA002,Song,NGA002018,Song Gari,Camp,Spontaneous,AD_S042,gadamayo bango,9.82975,12.61235,informal,Camp/Camp-like settings,01/08/2018,unknown,private building,Host Family house,insurgency,adamawa,madagali,wagga,borno,gwoza,gwoza town gadamayo,none , 12 , 60 
Adamawa,NGA002,Yola North,NGA002020,Jambutu,Collective Settlement/Centre,Spontaneous,AD_S028,hullere,9.29585,12.4091,informal,Camp/Camp-like settings,,unknown,private building,individual house,insurgency,borno,gwoza,gwoza wakane / bulabulin,borno,gwoza,pulka/bokko,flood, 10 , 52 
Adamawa,NGA002,Yola South,NGA002021,Adarawo,Collective Settlement/Centre,Spontaneous,AD_S027,dokkitilla wurochekke,9.20922,12.51337,informal,Camp/Camp-like settings,10/06/2015,unknown,Public/Government,Self-made/Makeshift shelter,insurgency,adamawa,madagali,hyambula,,,,none , 39 , 182 
Adamawa,NGA002,Yola South,NGA002021,Bole Yolde Pate,Camp,Spontaneous,AD_S045,gujibabu sabon gari,9.15587,12.40353,informal,Camp/Camp-like settings,08/04/2016,unknown,private building,individual house,insurgency,adamawa,madagali,gulak,,,,none , 39 , 289 
Adamawa,NGA002,Yola South,NGA002021,Bole Yolde Pate,Camp,Spontaneous,AD_S060,NJACCINGO CAMP,9.12249,12.34726,informal,Camp/Camp-like settings,08/11/2018,unknown,Ancestral,emergency shelter,insurgency,adamawa,madagali,wagga,,,,none, 221 ," 1,351 "
Adamawa,NGA002,Yola South,NGA002021,Namtari,Camp,Planned,AD_S003,malkohi camp,9.19624,12.38553,formal,Camp/Camp-like settings,11/11/2014,unknown,Public/Government,Self-made/Makeshift shelter,insurgency,borno,gwoza,bita / izge,borno,bama,shehuri / hausari / mairi,none , 235 ," 1,239 "
Adamawa,NGA002,Yola South,NGA002021,Namtari,Camp,Planned,AD_S004,malkohi village,9.19288,12.37614,formal,Camp/Camp-like settings,06/08/2014,unknown,Public/Government,Self-made/Makeshift shelter,insurgency,borno,gwoza,bita / izge,borno,gwoza,ngoshe,none , 580 ," 3,063 "
Adamawa,NGA002,Yola South,NGA002021,Namtari,Camp,Planned,AD_S030,kilbaje extension,9.25212,12.38243,informal,Camp/Camp-like settings,04/06/2015,unknown,Public/Government,Self-made/Makeshift shelter,insurgency,adamawa,madagali,hyambula,,,,none , 64 , 477 
Adamawa,NGA002,Yola South,NGA002021,Ngurore,Camp,Spontaneous,AD_S029,sabon pegi ngurore,9.28839,12.25115,informal,Camp/Camp-like settings,06/06/2015,unknown,Ancestral,Self-made/Makeshift shelter,insurgency,adamawa,madagali,gulak,,,,none , 175 , 671 
Adamawa,NGA002,Yola South,NGA002021,Ngurore,Camp,Spontaneous,AD_S044,wuro-yanka,9.28678,12.22178,informal,Camp/Camp-like settings,11/11/2014,unknown,Ancestral,emergency shelter,insurgency,borno,gwoza,gwoza town gadamayo,,,,none , 45 , 255 
Borno,NGA008,Askira / Uba,NGA008002,Lassa,Collective Settlement/Centre,Spontaneous,BO_S181,vocational training centre,10.69363,13.26958,informal,Camp/Camp-like settings,07/01/2014,unknown,Public/Government,government building,insurgency,borno,askira / uba,kopa / multhafu,,,,none , 412 ," 2,472 "
Borno,NGA008,Askira / Uba,NGA008002,Zadawa / Hausari,Collective Settlement/Centre,Spontaneous,BO_S273,zadawa camp,10.64814,12.90757,informal,Camp/Camp-like settings,18/06/2015,unknown,Public/Government,community center,insurgency,borno,damboa,damboa,,,,none , 62 , 372 
Borno,NGA008,Bama,NGA008003,Shehuri / Hausari / Mairi,Camp,Planned,BO_S262,gssss camp bama,11.50741,13.68856,formal,Camp/Camp-like settings,06/12/2018,unknown,Public/Government,emergency shelter,insurgency,borno,bama,sabsabwa / soye/ bulongu,borno,bama,buduwa / bula chirabe,none ," 19,005 "," 60,318 "
Borno,NGA008,Biu,NGA008005,Kenken,Camp,Planned,BO_S015,"zonal education center camp, biu",10.61545,12.18285,formal,Camp/Camp-like settings,18/12/2015,unknown,Public/Government,emergency shelter,insurgency,borno,biu,buratai,borno,hawul,kwajaffa/hang,flood, 270 ," 1,886 "
Borno,NGA008,Chibok,NGA008006,Chibok Garu,Camp,Spontaneous,BO_S167,red-bricks (idp) camp,10.87808,12.85962,informal,Camp/Camp-like settings,07/11/2015,unknown,Public/Government,government building,insurgency,borno,damboa,mulgwai / kopchi,borno,damboa,gumsuri/misakurbudu,storm, 37 , 220 
Borno,NGA008,Chibok,NGA008006,Chibok Likama,Camp,Spontaneous,BO_S217,10 housing secretariat camp,10.88008,12.84496,informal,Camp/Camp-like settings,13/03/2017,unknown,Public/Government,government building,insurgency,borno,chibok,kuburmbula,borno,damboa,gumsuri/misakurbudu,storm, 15 , 81 
Borno,NGA008,Damboa,NGA008007,Damboa,Collective Settlement/Centre,Planned,BO_S089,general hospital damboa,11.16781,12.76223,informal,Camp/Camp-like settings,,unknown,Public/Government,emergency shelter,insurgency,borno,damboa,mulgwai / kopchi,borno,gwoza,bita / izge,none ," 2,185 "," 6,931 "
Borno,NGA008,Damboa,NGA008007,Damboa,Collective Settlement/Centre,Planned,BO_S090,central primary school damboa,11.16132,12.75653,informal,Camp/Camp-like settings,,unknown,Public/Government,emergency shelter,insurgency,borno,konduga,nyaleri/sandia/yejiwa,borno,damboa,mulgwai / kopchi,none ," 1,182 "," 3,971 "
Borno,NGA008,Damboa,NGA008007,Damboa,Collective Settlement/Centre,Planned,BO_S134,hausari primary school damboa,11.14815,12.75235,informal,Camp/Camp-like settings,,unknown,Public/Government,Host Family house,insurgency,borno,damboa,mulgwai / kopchi,borno,gwoza,bita / izge,none , 650 ," 2,711 "
Borno,NGA008,Damboa,NGA008007,Damboa,Camp,Spontaneous,BO_S218,mobile clinic,11.15973,12.75833,informal,Camp/Camp-like settings,,unknown,private building,Self-made/Makeshift shelter,insurgency,borno,damboa,bego/yerwa/ngurna,borno,damboa,bego/yerwa/ngurna,none , 20 , 89 
Borno,NGA008,Damboa,NGA008007,Damboa,Camp,Spontaneous,BO_S176,abori gate,11.16363,12.75652,formal,Camp/Camp-like settings,,unknown,private building,emergency shelter,insurgency,borno,damboa,kafa / mafi,borno,damboa,mulgwai / kopchi,none ," 1,123 "," 4,123 "
Borno,NGA008,Damboa,NGA008007,Damboa,Camp,Spontaneous,BO_S221,old secetariat camp,11.16253,12.7597,informal,Camp/Camp-like settings,,unknown,Public/Government,emergency shelter,insurgency,borno,damboa,wawa / korede,borno,damboa,bego/yerwa/ngurna,none , 74 , 353 
Borno,NGA008,Damboa,NGA008007,Damboa,Camp,Spontaneous,BO_S222,upper court,11.16464,12.75885,informal,Camp/Camp-like settings,,unknown,private building,emergency shelter,insurgency,borno,damboa,wawa / korede,borno,damboa,bego/yerwa/ngurna,none , 161 , 622 
Borno,NGA008,Damboa,NGA008007,Damboa,Camp,Spontaneous,BO_S227,police doki,11.15776,12.75827,informal,Camp/Camp-like settings,,unknown,Public/Government,emergency shelter,insurgency,borno,konduga,nyaleri/sandia/yejiwa,borno,damboa,bego/yerwa/ngurna,none , 13 , 65 
Borno,NGA008,Damboa,NGA008007,Damboa,Camp,Spontaneous,BO_S259,low cost camp,11.17004,12.76482,formal,Camp/Camp-like settings,,unknown,Public/Government,emergency shelter,insurgency,borno,damboa,ajign (a),borno,damboa,azur/multe/forfor,none ," 1,567 "," 7,319 "
Borno,NGA008,Damboa,NGA008007,Damboa,Camp,Planned,BO_S283,unity camp,11.16569,12.75927,formal,Camp/Camp-like settings,,unknown,Public/Government,emergency shelter,insurgency,borno,damboa,ajign (a),borno,damboa,azur/multe/forfor,none , 539 ," 2,285 "
Borno,NGA008,Damboa,NGA008007,Damboa,Camp,Spontaneous,BO_S220,estate camp,11.14646,12.75608,informal,Camp/Camp-like settings,,unknown,Public/Government,emergency shelter,insurgency,borno,damboa,wawa / korede,borno,damboa,bego/yerwa/ngurna,none, 81 , 404 
Borno,NGA008,Dikwa,NGA008008,Dikwa,Collective Settlement/Centre,Spontaneous,BO_S140,bulabulin primary school camp,12.03952,13.90478,informal,Camp/Camp-like settings,05/09/2016,unknown,Public/Government,school building,insurgency,borno,dikwa,ufaye / gujile,borno,bama,gulumba / jukkuri / batra,none , 387 ," 2,973 "
Borno,NGA008,Dikwa,NGA008008,Dikwa,Collective Settlement/Centre,Planned,BO_S137,kamchiji camp,12.03809,13.92085,informal,Camp/Camp-like settings,23/09/2016,unknown,private building,emergency shelter,insurgency,borno,dikwa,ngudoram,borno,ngala,warshele,none , 458 ," 2,074 "
Borno,NGA008,Dikwa,NGA008008,Dikwa,Collective Settlement/Centre,Planned,BO_S138,sangaya,12.03091,13.91658,informal,Camp/Camp-like settings,10/09/2016,unknown,Public/Government,school building,insurgency,borno,dikwa,mallam maja,borno,dikwa,ufaye / gujile,none ," 1,539 "," 8,121 "
Borno,NGA008,Dikwa,NGA008008,Dikwa,Collective Settlement/Centre,Planned,BO_S139,mohammed kyari,12.04114,13.91272,informal,Camp/Camp-like settings,25/09/2016,unknown,Public/Government,Self-made/Makeshift shelter,insurgency,borno,dikwa,gajibo,borno,dikwa,ngudoram,none , 640 ," 3,051 "
Borno,NGA008,Dikwa,NGA008008,Dikwa,Collective Settlement/Centre,Planned,BO_S142,agric idp camp,12.03685,13.90292,informal,Camp/Camp-like settings,04/01/2022,unknown,Public/Government,Self-made/Makeshift shelter,insurgency,borno,dikwa,ufaye / gujile,borno,dikwa,boboshe,flood," 1,013 "," 5,725 "
Borno,NGA008,Dikwa,NGA008008,Dikwa,Collective Settlement/Centre,Planned,BO_S143,motor park idp camp,12.03724,13.91043,informal,Camp/Camp-like settings,15/09/2016,unknown,Public/Government,Self-made/Makeshift shelter,insurgency,borno,marte,ala,borno,dikwa,gajibo,flood, 873 ," 3,199 "
Borno,NGA008,Dikwa,NGA008008,Dikwa,Collective Settlement/Centre,Planned,BO_S182,shehuri/modu kasa camp,12.04361,13.91731,informal,Camp/Camp-like settings,07/09/2016,unknown,Public/Government,emergency shelter,insurgency,borno,dikwa,mudu / kaza,borno,dikwa,ngudoram,none ," 1,549 "," 7,187 "
Borno,NGA008,Dikwa,NGA008008,Dikwa,Camp,Planned,BO_S183,klagaru,12.02969,13.91728,formal,Camp/Camp-like settings,13/10/2016,unknown,Public/Government,emergency shelter,insurgency,borno,dikwa,boboshe,borno,dikwa,mallam maja,none , 976 ," 5,480 "
Borno,NGA008,Dikwa,NGA008008,Dikwa,Camp,Planned,BO_S205,ajari camp,12.03095,13.92095,formal,Camp/Camp-like settings,07/07/2017,unknown,private building,emergency shelter,insurgency,borno,dikwa,sogoma / afuye,borno,dikwa,ngudoram,none , 200 ," 1,104 "
Borno,NGA008,Dikwa,NGA008008,Dikwa,Collective Settlement/Centre,Spontaneous,BO_S248,twenty housing estate,12.03647,13.90445,informal,Camp/Camp-like settings,06/09/2017,unknown,Public/Government,government building,insurgency,borno,bama,gulumba / jukkuri / batra,borno,bama,gulumba / jukkuri / batra,none , 188 , 745 
Borno,NGA008,Dikwa,NGA008008,Dikwa,Camp,Planned,BO_S255,masarmari,12.04282,13.90111,formal,Camp/Camp-like settings,27/09/2017,unknown,Public/Government,emergency shelter,insurgency,borno,dikwa,magarta / sheffri,borno,dikwa,magarta / sheffri,none ," 1,944 "," 7,986 "
Borno,NGA008,Dikwa,NGA008008,Dikwa,Camp,Planned,BO_S256,1000 camp dikwa,12.02781,13.92117,formal,Camp/Camp-like settings,17/08/2017,unknown,Public/Government,emergency shelter,insurgency,borno,dikwa,sogoma / afuye,borno,bama,gulumba / jukkuri / batra,none , 667 ," 3,198 "
Borno,NGA008,Dikwa,NGA008008,Dikwa,Collective Settlement/Centre,Planned,BO_S278,fulatari camp,12.03718,13.90129,informal,Camp/Camp-like settings,04/01/2022,unknown,Public/Government,emergency shelter,insurgency,borno,dikwa,magarta / sheffri,borno,dikwa,boboshe,none ," 1,376 "," 6,946 "
Borno,NGA008,Dikwa,NGA008008,Dikwa,Collective Settlement/Centre,Spontaneous,BO_S279,alhaji bashir camp,12.03547,13.90581,informal,Camp/Camp-like settings,02/05/2017,unknown,private building,Self-made/Makeshift shelter,insurgency,borno,dikwa,muliye / jemuri,borno,dikwa,boboshe,none , 198 ," 1,301 "
Borno,NGA008,Dikwa,NGA008008,Dikwa,Collective Settlement/Centre,Planned,BO_S289,shuwari camp,12.04225,13.92212,informal,Camp/Camp-like settings,07/06/2018,unknown,private building,emergency shelter,insurgency,borno,dikwa,boboshe,borno,dikwa,magarta / sheffri,none , 541 ," 2,497 "
Borno,NGA008,Dikwa,NGA008008,Dikwa,Camp,Planned,BO_S290,ministry of works camp,12.03976,13.92523,formal,Camp/Camp-like settings,14/06/2018,unknown,Public/Government,emergency shelter,insurgency,borno,bama,gulumba / jukkuri / batra,borno,dikwa,boboshe,none , 270 , 912 
Borno,NGA008,Gwoza,NGA008011,Gwoza Wakane / Bulabulin,Collective Settlement/Centre,Planned,BO_S111,gwoza wakane pri. sch.,11.089,13.68757,informal,Camp/Camp-like settings,15/06/2015,unknown,Public/Government,emergency shelter,insurgency,borno,gwoza,dure / wala / warabe,borno,gwoza,hambagda/ liman kara/ new settle,none , 215 ," 1,064 "
Borno,NGA008,Gwoza,NGA008011,Gwoza Wakane / Bulabulin,Camp,Planned,BO_S261,gss camp gwoza,11.10531,13.69142,informal,Camp/Camp-like settings,09/10/2017,unknown,Public/Government,emergency shelter,insurgency,borno,gwoza,bita / izge,borno,gwoza,dure / wala / warabe,none ," 2,326 "," 8,460 "
Borno,NGA008,Gwoza,NGA008011,Gwoza Wakane / Bulabulin,Camp,Planned,BO_S327,dangote camp,11.081038,13.68986,informal,Camp/Camp-like settings,21/04/2018,unknown,Public/Government,emergency shelter,insurgency,borno,gwoza,dure / wala / warabe,,,,none , 62 , 262 
Borno,NGA008,Gwoza,NGA008011,Hambagda/ Liman Kara/ New Settle,Collective Settlement/Centre,Planned,BO_S073,20 housing unit,11.07002,13.68992,informal,Camp/Camp-like settings,07/09/2016,unknown,Public/Government,emergency shelter,insurgency,borno,gwoza,hambagda/ liman kara/ new settle,borno,gwoza,bita / izge,none , 854 ," 4,833 "
Borno,NGA008,Gwoza,NGA008011,Pulka/Bokko,Camp,Planned,BO_S207,camp a (umbazah rock side camp),11.23122,13.78367,formal,Camp/Camp-like settings,18/09/2015,unknown,Public/Government,emergency shelter,insurgency,borno,gwoza,bita / izge,borno,gwoza,ngoshe,none , 685 ," 3,518 "
Borno,NGA008,Gwoza,NGA008011,Pulka/Bokko,Camp,Planned,BO_S224,camp b (camp 2 (wege)),11.22534,13.78606,formal,Camp/Camp-like settings,01/03/2016,unknown,Public/Government,emergency shelter,insurgency,borno,gwoza,ngoshe,borno,gwoza,ngoshe,none , 652 ," 4,475 "
Borno,NGA008,Gwoza,NGA008011,Pulka/Bokko,Camp,Planned,BO_S239,reception/transit,11.23177,13.77628,formal,Camp/Camp-like settings,17/08/2017,unknown,Public/Government,emergency shelter,insurgency,borno,gwoza,kirawa/jimini,borno,gwoza,ngoshe,none ," 4,172 "," 9,083 "
Borno,NGA008,Gwoza,NGA008011,Pulka/Bokko,Collective Settlement/Centre,Planned,BO_S240,camp d (damara arrival centre),11.22047,13.78747,informal,Camp/Camp-like settings,29/09/2017,unknown,Public/Government,emergency shelter,insurgency,borno,gwoza,pulka/bokko,borno,gwoza,ngoshe,none ," 1,193 "," 6,354 "
Borno,NGA008,Gwoza,NGA008011,Pulka/Bokko,Camp,Planned,BO_S246,camp c (wege extension),11.22738,13.7741,formal,Camp/Camp-like settings,08/04/2015,unknown,Public/Government,emergency shelter,insurgency,borno,gwoza,kirawa/jimini,borno,gwoza,dure / wala / warabe,none ," 2,068 "," 10,251 "
Borno,NGA008,Gwoza,NGA008011,Pulka/Bokko,Collective Settlement/Centre,Planned,BO_S322,camp e,11.23111,13.78741,informal,Camp/Camp-like settings,01/12/2021,unknown,Public/Government,emergency shelter,insurgency,borno,gwoza,kirawa/jimini,borno,gwoza,ngoshe,none , 181 ," 1,760 "
Borno,NGA008,Jere,NGA008013,Bale Galtimari,Collective Settlement/Centre,Planned,BO_S035,ajiri camp,11.78468,13.13906,informal,Camp/Camp-like settings,11/06/2016,unknown,private building,emergency shelter,insurgency,borno,konduga,sojiri/ nguro - nguro,borno,bama,kasugula,flood, 110 , 719 
Borno,NGA008,Jere,NGA008013,Bale Galtimari,Collective Settlement/Centre,Planned,BO_S119,kekeno non government idp camp,11.78282,13.13685,informal,Camp/Camp-like settings,02/08/2015,unknown,private building,emergency shelter,insurgency,borno,kukawa,kekeno,,,,none , 18 , 110 
Borno,NGA008,Jere,NGA008013,Bale Galtimari,Camp,Spontaneous,BO_S233,gombole site 2,11.79337,13.17182,informal,Camp/Camp-like settings,06/10/2014,unknown,private building,Self-made/Makeshift shelter,insurgency,borno,jere,alau,borno,konduga,sojiri/ nguro - nguro,flood, 56 , 283 
Borno,NGA008,Jere,NGA008013,Bale Galtimari,Camp,Spontaneous,BO_S244,bakin lambu,11.80907,13.17745,informal,Camp/Camp-like settings,21/08/2016,unknown,private building,Self-made/Makeshift shelter,insurgency,borno,bama,sabsabwa / soye/ bulongu,borno,gwoza,gwoza town gadamayo,flood, 43 , 222 
Borno,NGA008,Jere,NGA008013,Bale Galtimari,Collective Settlement/Centre,Planned,BO_S292,fulatari camp jere,11.78566,13.1344,informal,Camp/Camp-like settings,04/09/2014,unknown,private building,Self-made/Makeshift shelter,insurgency,borno,jere,bale galtimari,borno,konduga,masba / dalwa west,flood, 24 , 108 
Borno,NGA008,Jere,NGA008013,Bale Galtimari,Camp,Spontaneous,BO_S301,ajajari camp,11.7959,13.18182,informal,Camp/Camp-like settings,04/12/2021,unknown,private building,emergency shelter,insurgency,borno,konduga,kawuri,,,,flood, 7 , 40 
Borno,NGA008,Jere,NGA008013,Bale Galtimari,Collective Settlement/Centre,Planned,BO_S310,behind fori clinic camp,11.79882,13.1782,informal,Camp/Camp-like settings,22/11/2018,unknown,Public/Government,Self-made/Makeshift shelter,insurgency,borno,konduga,dalori / wanori,,,,fire, 14 , 118 
Borno,NGA008,Jere,NGA008013,Bale Galtimari,Collective Settlement/Centre,Planned,BO_S342,bale camp,11.784864,13.132894,informal,Camp/Camp-like settings,19/06/2021,unknown,Public/Government,Self-made/Makeshift shelter,insurgency,borno,jere,alau,,,,flood, 12 , 63 
Borno,NGA008,Jere,NGA008013,Bale Galtimari,Camp,Spontaneous,BO_S354,balle shuwa camp,11.84556,13.15789,informal,Camp/Camp-like settings,06/08/2017,unknown,private building,Self-made/Makeshift shelter,insurgency,borno,jere,alau,,,,flood, 16 , 82 
Borno,NGA008,Jere,NGA008013,Bale Galtimari,Collective Settlement/Centre,Planned,BO_S360,mommodu biri,11.795384,13.181141,informal,Camp/Camp-like settings,26/06/2017,unknown,private building,Self-made/Makeshift shelter,insurgency,borno,jere,alau,,,,flood, 28 , 153 
Borno,NGA008,Jere,NGA008013,Dusuman,Collective Settlement/Centre,Spontaneous,BO_S033,muna primary,11.86631,13.23638,informal,Camp/Camp-like settings,,unknown,Public/Government,emergency shelter,insurgency,borno,marte,marte,borno,bama,gulumba / jukkuri / batra,fire, 515 ," 2,303 "
Borno,NGA008,Jere,NGA008013,Dusuman,Collective Settlement/Centre,Spontaneous,BO_S047,muna el badawy,11.87318,13.25046,formal,Camp/Camp-like settings,14/01/2015,unknown,private building,Self-made/Makeshift shelter,insurgency,borno,mafa,mujigine,borno,dikwa,boboshe,fire," 9,958 "," 49,931 "
Borno,NGA008,Jere,NGA008013,Dusuman,Collective Settlement/Centre,Spontaneous,BO_S051,muna da'alti 3,11.86817,13.25386,informal,Camp/Camp-like settings,,unknown,private building,emergency shelter,insurgency,borno,mafa,tamsu ngamdua,borno,mafa,limanti,flood, 37 , 189 
Borno,NGA008,Jere,NGA008013,Dusuman,Collective Settlement/Centre,Spontaneous,BO_S128,muna da'alti 1a,11.86917,13.25319,informal,Camp/Camp-like settings,,unknown,Public/Government,emergency shelter,insurgency,borno,mafa,loskuri,borno,mafa,tamsu ngamdua,none , 99 , 509 
Borno,NGA008,Jere,NGA008013,Dusuman,Collective Settlement/Centre,Spontaneous,BO_S129,muna da'alti 1b,11.86955,13.25373,informal,Camp/Camp-like settings,16/02/2015,unknown,private building,emergency shelter,insurgency,borno,mafa,loskuri,borno,mafa,loskuri,flood, 14 , 61 
Borno,NGA008,Jere,NGA008013,Dusuman,Collective Settlement/Centre,Spontaneous,BO_S145,muna da'alti 2a,11.86705,13.25275,informal,Camp/Camp-like settings,,unknown,private building,emergency shelter,insurgency,borno,mafa,loskuri,borno,marte,njine,storm, 162 , 976 
Borno,NGA008,Jere,NGA008013,Dusuman,Collective Settlement/Centre,Spontaneous,BO_S146,muna da`alti 2b,11.8674,13.25057,informal,Camp/Camp-like settings,,unknown,private building,emergency shelter,insurgency,borno,konduga,kawuri,borno,mobbar,gashagar,storm, 134 , 699 
Borno,NGA008,Jere,NGA008013,Dusuman,Collective Settlement/Centre,Spontaneous,BO_S151,custom house,11.88171,13.28239,formal,Camp/Camp-like settings,17/06/2015,unknown,Public/Government,emergency shelter,insurgency,borno,mafa,mujigine,borno,dikwa,boboshe,fire, 835 ," 3,816 "
Borno,NGA008,Jere,NGA008013,Dusuman,Collective Settlement/Centre,Spontaneous,BO_S159,musari camp,11.87957,13.26028,informal,Camp/Camp-like settings,10/02/2015,unknown,private building,emergency shelter,insurgency,borno,mafa,abbari,borno,mafa,mujigine,flood, 513 ," 2,308 "
Borno,NGA008,Jere,NGA008013,Dusuman,Collective Settlement/Centre,Spontaneous,BO_S168,muna moforo,11.8669,13.24659,informal,Camp/Camp-like settings,,unknown,private building,emergency shelter,insurgency,borno,marte,marte,borno,dikwa,boboshe,none , 460 ," 3,088 "
Borno,NGA008,Jere,NGA008013,Dusuman,Collective Settlement/Centre,Spontaneous,BO_S194,muna ethiopia camp,11.86717,13.24087,informal,Camp/Camp-like settings,22/11/2014,unknown,private building,Self-made/Makeshift shelter,insurgency,borno,bama,gulumba / jukkuri / batra,borno,mafa,loskuri,flood, 156 , 817 
Borno,NGA008,Jere,NGA008013,Dusuman,Collective Settlement/Centre,Spontaneous,BO_S195,muna kori bula yalaye,11.86946,13.24108,informal,Camp/Camp-like settings,,unknown,private building,emergency shelter,insurgency,borno,mafa,tamsu ngamdua,borno,konduga,mairamri / yeleri / bazamri,none , 191 , 843 
Borno,NGA008,Jere,NGA008013,Dusuman,Collective Settlement/Centre,Spontaneous,BO_S209,abba kura hassan,11.86962,13.25497,informal,Camp/Camp-like settings,,unknown,private building,emergency shelter,insurgency,borno,mafa,mujigine,borno,marte,gumna,none , 68 , 197 
Borno,NGA008,Jere,NGA008013,Dusuman,Collective Settlement/Centre,Spontaneous,BO_S229,bolori burin,11.86565,13.23252,informal,Camp/Camp-like settings,,unknown,private building,Self-made/Makeshift shelter,insurgency,borno,marte,njine,borno,bama,gulumba / jukkuri / batra,storm, 397 ," 1,991 "
Borno,NGA008,Jere,NGA008013,Dusuman,Collective Settlement/Centre,Spontaneous,BO_S238,muna mallam kori,11.86605,13.25029,informal,Camp/Camp-like settings,,unknown,private building,emergency shelter,insurgency,borno,konduga,dalori / wanori,borno,mafa,tamsu ngamdua,fire, 406 ," 2,410 "
Borno,NGA008,Jere,NGA008013,Dusuman,Collective Settlement/Centre,Spontaneous,BO_S274,Filin Baba Makinta,11.86603,13.24041,informal,Camp/Camp-like settings,17/02/2015,unknown,private building,emergency shelter,insurgency,borno,mafa,abbari,borno,mafa,loskuri,flood, 31 , 159 
Borno,NGA008,Jere,NGA008013,Dusuman,Collective Settlement/Centre,Spontaneous,BO_S275,muna bakassi,11.86513,13.24176,informal,Camp/Camp-like settings,,unknown,private building,emergency shelter,insurgency,borno,mafa,tamsu ngamdua,borno,mafa,tamsu ngamdua,storm, 315 ," 1,893 "
Borno,NGA008,Jere,NGA008013,Dusuman,Collective Settlement/Centre,Spontaneous,BO_S276,bulamatari camp,11.88649,13.222254,informal,Camp/Camp-like settings,22/11/2015,unknown,Public/Government,Self-made/Makeshift shelter,insurgency,borno,mafa,anadua,borno,konduga,kawuri,flood, 108 , 569 
Borno,NGA008,Jere,NGA008013,Dusuman,Collective Settlement/Centre,Spontaneous,BO_S302,isa gamai camp,11.86494,13.23072,informal,Camp/Camp-like settings,,unknown,private building,Self-made/Makeshift shelter,insurgency,borno,marte,gumna,borno,mafa,laje,flood, 106 , 554 
Borno,NGA008,Jere,NGA008013,Dusuman,Collective Settlement/Centre,Spontaneous,BO_S303,muna asheri camp,11.86987,13.23694,informal,Camp/Camp-like settings,13/01/2015,unknown,private building,Self-made/Makeshift shelter,insurgency,borno,mafa,limanti,borno,marte,kulli,flood, 542 ," 2,487 "
Borno,NGA008,Jere,NGA008013,Dusuman,Collective Settlement/Centre,Spontaneous,BO_S319,bolori store muna,11.86427,13.22846,informal,Camp/Camp-like settings,,unknown,private building,emergency shelter,insurgency,borno,mafa,limanti,borno,marte,kirenowa,storm, 59 , 359 
Borno,NGA008,Jere,NGA008013,Dusuman,Camp,Planned,BO_S371,shuwari-kaleri housing unit,11.8834,13.30595,formal,Camp/Camp-like settings,03/09/2021,unknown,Public/Government,government building,insurgency,borno,mafa,mafa,borno,kala balge,kala,flood," 1,556 "," 9,336 "
Borno,NGA008,Jere,NGA008013,Dusuman,Collective Settlement/Centre,Spontaneous,BO_S372,mallam isa camp,11.86617,13.22997,informal,Camp/Camp-like settings,,unknown,private building,emergency shelter,insurgency,borno,dikwa,boboshe,borno,dikwa,boboshe,none , 21 , 118 
Borno,NGA008,Jere,NGA008013,Dusuman,Collective Settlement/Centre,Spontaneous,BO_S373,Kolori Village IDP Camp,11.87105,13.21667,informal,Camp/Camp-like settings,17/11/2021,unknown,private building,Self-made/Makeshift shelter,insurgency,borno,marte,alla  lawanti,borno,mafa,mafa,fire, 154 ," 1,114 "
Borno,NGA008,Jere,NGA008013,Gongulong,Collective Settlement/Centre,Spontaneous,BO_S212,kessa kura,11.91806,13.19204,informal,Camp/Camp-like settings,19/09/2014,unknown,private building,Self-made/Makeshift shelter,insurgency,borno,mafa,masu,borno,jere,tuba,flood," 1,021 "," 5,121 "
Borno,NGA008,Jere,NGA008013,Gongulong,Camp,Spontaneous,BO_S234,gongulong camp,11.92344,13.18808,informal,Camp/Camp-like settings,15/03/2016,unknown,private building,Self-made/Makeshift shelter,insurgency,borno,mafa,masu,borno,jere,gongulong,flood, 722 ," 4,019 "
Borno,NGA008,Jere,NGA008013,Maimusari,Collective Settlement/Centre,Spontaneous,BO_S362,zannari kanti 10 camp,13.20161,11.85365,informal,Camp/Camp-like settings,16/02/2014,unknown,Public/Government,school building,insurgency,borno,konduga,konduga,borno,mafa,mafa,none , 76 , 418 
Borno,NGA008,Jere,NGA008013,Mairi,Collective Settlement/Centre,Spontaneous,BO_S034,uniguest camp,11.81075,13.18683,informal,Camp/Camp-like settings,14/01/2014,unknown,private building,rented house,insurgency,borno,bama,kasugula,borno,bama,kasugula,none , 29 , 106 
Borno,NGA008,Jere,NGA008013,Mairi,Collective Settlement/Centre,Spontaneous,BO_S036,mairi bakin kogi camp,11.80819,13.18139,informal,Camp/Camp-like settings,06/08/2014,unknown,private building,rented house,insurgency,borno,bama,kasugula,borno,konduga,konduga,none , 30 , 184 
Borno,NGA008,Jere,NGA008013,Mairi,Collective Settlement/Centre,Spontaneous,BO_S056,orji kalu house,11.8161,13.18971,informal,Camp/Camp-like settings,01/09/2014,unknown,private building,rented house,insurgency,borno,bama,kasugula,borno,konduga,konduga,none , 7 , 29 
Borno,NGA008,Jere,NGA008013,Mairi,Collective Settlement/Centre,Spontaneous,BO_S131,layin elka,11.82011,13.1894,informal,Camp/Camp-like settings,01/09/2014,unknown,private building,rented house,insurgency,borno,konduga,konduga,borno,bama,kasugula,none , 15 , 70 
Borno,NGA008,Jere,NGA008013,Mairi,Camp,Spontaneous,BO_S306,kaleri babban gida,11.83222,13.19932,informal,Camp/Camp-like settings,01/03/2015,unknown,private building,rented house,insurgency,borno,bama,kasugula,borno,konduga,konduga,none , 19 , 94 
Borno,NGA008,Jere,NGA008013,Mashamari,Collective Settlement/Centre,Spontaneous,BO_S163,alhaji mustapha babagana house,11.85664,13.19427,informal,Camp/Camp-like settings,16/06/2015,unknown,private building,Host Family house,insurgency,borno,mafa,mafa,borno,mafa,loskuri,flood, 39 , 315 
Borno,NGA008,Jere,NGA008013,Mashamari,Collective Settlement/Centre,Spontaneous,BO_S165,alhaji adam house,11.84494,13.18626,informal,Camp/Camp-like settings,22/12/2015,unknown,private building,Self-made/Makeshift shelter,insurgency,borno,mafa,mujigine,borno,mafa,tamsu ngamdua,flood, 7 , 29 
Borno,NGA008,Jere,NGA008013,Mashamari,Collective Settlement/Centre,Spontaneous,BO_S166,bamodu house,11.85258,13.18114,informal,Camp/Camp-like settings,13/04/2015,unknown,private building,Self-made/Makeshift shelter,insurgency,borno,marte,kulli,borno,mafa,ma'afa,flood, 26 , 148 
Borno,NGA008,Jere,NGA008013,Mashamari,Collective Settlement/Centre,Spontaneous,BO_S197,alhaji adam house 2,11.84418,13.18612,informal,Camp/Camp-like settings,06/01/2015,unknown,private building,Self-made/Makeshift shelter,insurgency,borno,mafa,loskuri,borno,mafa,koshebe,flood, 31 , 189 
Borno,NGA008,Jere,NGA008013,Mashamari,Collective Settlement/Centre,Spontaneous,BO_S214,mala sheriff construction company,11.85804,13.19984,informal,Camp/Camp-like settings,08/01/2019,unknown,private building,Self-made/Makeshift shelter,insurgency,borno,dikwa,boboshe,borno,jere,dusuman,flood, 72 , 517 
Borno,NGA008,Jere,NGA008013,Mashamari,Camp,Spontaneous,BO_S215,alhaji bashir liman house,11.85872,13.19924,informal,Camp/Camp-like settings,10/12/2018,unknown,private building,Host Family house,insurgency,borno,konduga,kawuri,borno,bama,kasugula,flood, 23 , 195 
Borno,NGA008,Jere,NGA008013,Mashamari,Collective Settlement/Centre,Spontaneous,BO_S235,alhaji tar 1,11.85866,13.21539,informal,Camp/Camp-like settings,19/08/2014,unknown,private building,Self-made/Makeshift shelter,insurgency,borno,ngala,logumane,borno,marte,kirenowa,flood, 39 , 271 
Borno,NGA008,Jere,NGA008013,Mashamari,Collective Settlement/Centre,Spontaneous,BO_S236,alhaji tar 2,11.85765,13.21543,informal,Camp/Camp-like settings,11/08/2019,unknown,private building,Self-made/Makeshift shelter,insurgency,borno,ngala,logumane,borno,marte,kirenowa,flood, 50 , 339 
Borno,NGA008,Jere,NGA008013,Mashamari,Collective Settlement/Centre,Spontaneous,BO_S253,wade -wade layin bola,11.84964,13.19544,informal,Camp/Camp-like settings,16/06/2015,unknown,private building,Self-made/Makeshift shelter,insurgency,borno,mafa,mafa,borno,mafa,ma'afa,flood, 64 , 326 
Borno,NGA008,Jere,NGA008013,Mashamari,Collective Settlement/Centre,Spontaneous,BO_S294,kirenuwa camp,11.85072,13.1925,informal,Camp/Camp-like settings,16/02/2016,unknown,private building,Self-made/Makeshift shelter,insurgency,borno,marte,kirenowa,borno,marte,ala,flood, 30 , 234 
Borno,NGA008,Jere,NGA008013,Mashamari,Collective Settlement/Centre,Spontaneous,BO_S298,gidan bredi tandari camp,11.85236,13.18067,informal,Camp/Camp-like settings,25/01/2015,unknown,private building,Host Family house,insurgency,borno,marte,kirenowa,borno,marte,kulli,flood, 13 , 84 
Borno,NGA008,Jere,NGA008013,Mashamari,Collective Settlement/Centre,Spontaneous,BO_S299,fato kura,11.85407,13.18304,informal,Camp/Camp-like settings,11/08/2014,unknown,private building,Self-made/Makeshift shelter,insurgency,borno,mafa,tamsu ngamdua,borno,bama,kasugula,flood, 35 , 181 
Borno,NGA008,Jere,NGA008013,Mashamari,Collective Settlement/Centre,Spontaneous,BO_S300,bash camp,11.85218,13.18255,informal,Camp/Camp-like settings,19/08/2014,unknown,private building,Self-made/Makeshift shelter,insurgency,borno,mafa,mafa,borno,mafa,koshebe,flood, 69 , 280 
Borno,NGA008,Jere,NGA008013,Mashamari,Collective Settlement/Centre,Spontaneous,BO_S361,baderi camp,11.84788,13.18567,informal,Camp/Camp-like settings,16/09/2019,unknown,private building,emergency shelter,insurgency,borno,marte,ngeleiwa,borno,marte,kulli,flood, 73 , 379 
Borno,NGA008,Jere,NGA008013,Mashamari,Collective Settlement/Centre,Spontaneous,BO_S363,gidan mongoro new settlement 10,11.85995,13.20219,informal,Camp/Camp-like settings,15/08/2017,unknown,private building,Host Family house,insurgency,borno,konduga,kawuri,borno,dikwa,boboshe,fire, 82 , 522 
Borno,NGA008,Jere,NGA008013,Ngudaa/Addamari,Camp,Spontaneous,BO_S226,khaddamari qtrs,11.94668,13.22199,informal,Camp/Camp-like settings,11/10/2014,unknown,Public/Government,Self-made/Makeshift shelter,insurgency,borno,jere,ngudaa/addamari,borno,mafa,masu,flood, 187 , 945 
Borno,NGA008,Jere,NGA008013,Old Maiduguri,Camp,Spontaneous,BO_S003,madinatu camp,11.87722,13.1805,formal,Camp/Camp-like settings,,unknown,Public/Government,Self-made/Makeshift shelter,insurgency,borno,kukawa,baga,borno,marte,kirenowa,none ," 4,066 "," 20,682 "
Borno,NGA008,Jere,NGA008013,Old Maiduguri,Collective Settlement/Centre,Spontaneous,BO_S067,faria buzu camp,11.87071,13.18954,informal,Camp/Camp-like settings,,unknown,Public/Government,Self-made/Makeshift shelter,insurgency,borno,marte,kirenowa,borno,mafa,mafa,none , 54 , 243 
Borno,NGA008,Jere,NGA008013,Old Maiduguri,Camp,Spontaneous,BO_S068,faria gidan block camp,11.86721,13.18123,informal,Camp/Camp-like settings,,unknown,Public/Government,Self-made/Makeshift shelter,insurgency,borno,marte,kirenowa,borno,mafa,mafa,none ," 1,571 "," 6,861 "
Borno,NGA008,Jere,NGA008013,Old Maiduguri,Collective Settlement/Centre,Spontaneous,BO_S072,korso bashir camp,11.86932,13.16474,informal,Camp/Camp-like settings,,unknown,Public/Government,Self-made/Makeshift shelter,insurgency,borno,marte,kirenowa,,,,none , 129 , 696 
Borno,NGA008,Jere,NGA008013,Old Maiduguri,Camp,Spontaneous,BO_S076,shuwari filling ball camp,11.86693,13.1655,informal,Camp/Camp-like settings,,unknown,private building,Self-made/Makeshift shelter,insurgency,borno,marte,kirenowa,,,,none , 547 ," 1,852 "
Borno,NGA008,Jere,NGA008013,Old Maiduguri,Camp,Spontaneous,BO_S113,el-miskin camp i,11.88156,13.17708,formal,Camp/Camp-like settings,,unknown,private building,emergency shelter,insurgency,borno,jere,ngudaa/addamari,borno,mafa,mafa,none ," 1,551 "," 7,348 "
Borno,NGA008,Jere,NGA008013,Old Maiduguri,Camp,Spontaneous,BO_S114,old maiduguri police station camp,11.87226,13.17357,informal,Camp/Camp-like settings,,unknown,Public/Government,emergency shelter,insurgency,borno,marte,kirenowa,borno,monguno,monguno,none , 128 , 763 
Borno,NGA008,Jere,NGA008013,Old Maiduguri,Transitional Centre,Spontaneous,BO_S178,el-miskin camp ii,11.88285,13.17695,informal,Camp/Camp-like settings,,unknown,Public/Government,Self-made/Makeshift shelter,insurgency,borno,marte,kirenowa,borno,mafa,mafa,none ," 1,777 "," 9,714 "
Borno,NGA008,Jere,NGA008013,Old Maiduguri,Collective Settlement/Centre,Spontaneous,BO_S249,wakshama,11.86203,13.16203,informal,Camp/Camp-like settings,,unknown,Public/Government,Self-made/Makeshift shelter,insurgency,borno,marte,kirenowa,,,,none , 504 ," 2,172 "
Borno,NGA008,Jere,NGA008013,Old Maiduguri,Camp,Spontaneous,BO_S250,al-yakub,11.86904,13.16368,informal,Camp/Camp-like settings,,unknown,Public/Government,emergency shelter,insurgency,borno,marte,kirenowa,borno,mafa,mafa,none , 506 ," 2,103 "
Borno,NGA008,Jere,NGA008013,Old Maiduguri,Camp,Spontaneous,BO_S268,sheik sheriff tijjani camp,11.8771,13.17646,informal,Camp/Camp-like settings,01/01/2014,unknown,Public/Government,emergency shelter,insurgency,borno,marte,kirenowa,borno,kukawa,baga,none , 47 , 242 
Borno,NGA008,Jere,NGA008013,Old Maiduguri,Collective Settlement/Centre,Spontaneous,BO_S269,ajigab camp,11.87509,13.18228,informal,Camp/Camp-like settings,,unknown,Public/Government,Self-made/Makeshift shelter,insurgency,borno,marte,kirenowa,borno,jere,ngudaa/addamari,none , 185 , 815 
Borno,NGA008,Jere,NGA008013,Old Maiduguri,Camp,Spontaneous,BO_S270,annur camp,11.87176,13.18128,informal,Camp/Camp-like settings,,unknown,private building,emergency shelter,insurgency,borno,marte,kirenowa,,,,none , 101 , 348 
Borno,NGA008,Jere,NGA008013,Old Maiduguri,Camp,Spontaneous,BO_S288,sanawuya,11.87771,13.16969,informal,Camp/Camp-like settings,01/01/2017,unknown,Public/Government,emergency shelter,insurgency,borno,jere,ngudaa/addamari,borno,mafa,mafa,none , 401 ," 1,356 "
Borno,NGA008,Jere,NGA008013,Old Maiduguri,Collective Settlement/Centre,Spontaneous,BO_S324,ahmed grema,11.87257,13.1638,informal,Camp/Camp-like settings,,unknown,Public/Government,Self-made/Makeshift shelter,insurgency,borno,bama,kasugula,,,,none , 607 ," 2,246 "
Borno,NGA008,Jere,NGA008013,Old Maiduguri,Collective Settlement/Centre,Spontaneous,BO_S325,keza ngala,11.8769,13.1644,informal,Camp/Camp-like settings,,unknown,Public/Government,emergency shelter,insurgency,borno,nganzai,gajiram,,,,none , 62 , 195 
Borno,NGA008,Jere,NGA008013,Old Maiduguri,Camp,Spontaneous,BO_S328,goni audu,11.87407,13.17336,informal,Camp/Camp-like settings,,unknown,private building,Self-made/Makeshift shelter,insurgency,borno,dikwa,gajibo,borno,mafa,mafa,none , 56 , 232 
Borno,NGA008,Jere,NGA008013,Old Maiduguri,Camp,Spontaneous,BO_S332,fulatari,11.89303,13.1535,informal,Camp/Camp-like settings,01/12/2019,unknown,Public/Government,Self-made/Makeshift shelter,insurgency,borno,konduga,auno / chabbol,borno,marte,kirenowa,none , 508 ," 2,038 "
Borno,NGA008,Jere,NGA008013,Old Maiduguri,Collective Settlement/Centre,Spontaneous,BO_S335,filling alhaji kashim,11.86178,13.16781,informal,Camp/Camp-like settings,01/03/2020,unknown,Public/Government,Self-made/Makeshift shelter,insurgency,borno,magumeri,gaji ganna  i,borno,marte,kirenowa,none , 58 , 206 
Borno,NGA008,Jere,NGA008013,Old Maiduguri,Camp,Spontaneous,BO_S357,faria buzu 2,11.87226,13.18334,informal,Camp/Camp-like settings,,unknown,Public/Government,Self-made/Makeshift shelter,insurgency,borno,marte,kirenowa,,,,none , 106 , 361 
Borno,NGA008,Jere,NGA008013,Old Maiduguri,Collective Settlement/Centre,Spontaneous,BO_S364,al yakub extension,11.87829,13.16257,informal,Camp/Camp-like settings,,unknown,Public/Government,emergency shelter,insurgency,borno,mafa,mafa,borno,marte,kirenowa,none , 136 , 462 
Borno,NGA008,Kaga,NGA008014,Benisheikh,Collective Settlement/Centre,Planned,BO_S028,gss benisheikh,11.80058,12.47642,informal,Camp/Camp-like settings,01/05/2015,unknown,Public/Government,school building,insurgency,borno,kaga,dongo,borno,kaga,dogoma / jalori,fire, 156 , 780 
Borno,NGA008,Kaga,NGA008014,Benisheikh,Collective Settlement/Centre,Planned,BO_S029,low cost / sdp,11.80318,12.49542,informal,Camp/Camp-like settings,01/05/2016,unknown,Public/Government,emergency shelter,insurgency,borno,kaga,marguba,borno,kaga,afa/dig/maudori,none , 367 ," 1,980 "
Borno,NGA008,Kaga,NGA008014,Benisheikh,Collective Settlement/Centre,Planned,BO_S101,magistrate,11.80791,12.49842,informal,Camp/Camp-like settings,01/05/2015,unknown,Public/Government,emergency shelter,insurgency,borno,kaga,afa/dig/maudori,borno,kaga,afa/dig/maudori,none , 705 ," 5,493 "
Borno,NGA008,Kaga,NGA008014,Benisheikh,Camp,Planned,BO_S160,nrc camp,11.81643,12.49407,formal,Camp/Camp-like settings,01/09/2016,unknown,Public/Government,emergency shelter,insurgency,borno,kaga,borgozo,borno,kaga,afa/dig/maudori,none , 705 ," 3,316 "
Borno,NGA008,Kaga,NGA008014,Benisheikh,Camp,Planned,BO_S162,aisha buhari camp,11.81204,12.49902,formal,Camp/Camp-like settings,01/09/2016,unknown,Public/Government,emergency shelter,insurgency,borno,kaga,afa/dig/maudori,borno,kaga,borgozo,none , 295 ," 1,320 "
Borno,NGA008,Kaga,NGA008014,Ngamdu,Camp,Spontaneous,BO_S351,alajiri  primary school ngamdu,11.760323,12.263623,informal,Camp/Camp-like settings,18/09/2020,unknown,Public/Government,school building,insurgency,borno,kaga,wassaram,borno,kaga,wassaram,none , 172 , 862 
Borno,NGA008,Kaga,NGA008014,Ngamdu,Camp,Spontaneous,BO_S352,old secretariat ngamdu,11.763593,12.265062,informal,Camp/Camp-like settings,18/09/2020,unknown,Public/Government,government building,insurgency,borno,kaga,wassaram,borno,kaga,wassaram,fire, 93 , 465 
Borno,NGA008,Kala Balge,NGA008015,Rann A,Collective Settlement/Centre,Spontaneous,BO_S174,boarding primary school,12.26702,14.47046,informal,Camp/Camp-like settings,14/04/2016,unknown,Public/Government,Self-made/Makeshift shelter,insurgency,borno,kala balge,"jilbe ""b""/koma kaudi",borno,kala balge,moholo,none ," 1,684 "," 6,048 "
Borno,NGA008,Kala Balge,NGA008015,Rann A,Collective Settlement/Centre,Spontaneous,BO_S175,general hospital rann,12.26579,14.46957,informal,Camp/Camp-like settings,13/04/2016,unknown,Public/Government,Self-made/Makeshift shelter,insurgency,borno,kala balge,"rann ""b''/daima",borno,kala balge,kala,none , 975 ," 4,068 "
Borno,NGA008,Kala Balge,NGA008015,Rann A,Collective Settlement/Centre,Spontaneous,BO_S277,klagaru camp,12.26931,14.46741,informal,Camp/Camp-like settings,18/03/2016,unknown,Public/Government,Self-made/Makeshift shelter,insurgency,borno,kala balge,jarawa/sangaya,borno,kala balge,kala,flood," 3,744 "," 14,899 "
Borno,NGA008,Kala Balge,NGA008015,Rann A,Collective Settlement/Centre,Spontaneous,BO_S326,ajari/bulamari,12.27085,14.46592,informal,Camp/Camp-like settings,13/04/2016,unknown,private building,individual house,insurgency,borno,kala balge,mada,borno,kala balge,"jilbe ""b""/koma kaudi",none ," 3,532 "," 12,653 "
Borno,NGA008,Konduga,NGA008016,Auno / Chabbol,Collective Settlement/Centre,Planned,BO_S017,400 housing estate gubio (gubio camp),11.90408,13.07953,formal,Camp/Camp-like settings,08/05/2015,unknown,Public/Government,emergency shelter,insurgency,borno,kukawa,baga,borno,marte,kirenowa,fire," 5,176 "," 22,834 "
Borno,NGA008,Konduga,NGA008016,Auno / Chabbol,Collective Settlement/Centre,Planned,BO_S044,gida talatin,11.81613,13.06732,informal,Camp/Camp-like settings,09/09/2014,unknown,private building,rented house,insurgency,borno,konduga,dawa east / malari / kangamari,borno,kukawa,kukawa,storm, 30 , 198 
Borno,NGA008,Konduga,NGA008016,Auno / Chabbol,Collective Settlement/Centre,Planned,BO_S330,eyn church shagari lowcost camp,11.89967,13.09151,informal,Camp/Camp-like settings,21/12/2019,unknown,private building,Self-made/Makeshift shelter,insurgency,borno,gwoza,ngoshe,borno,gwoza,gavva / agapalwa,fire, 32 , 209 
Borno,NGA008,Konduga,NGA008016,Dalori / Wanori,Collective Settlement/Centre,Spontaneous,BO_S016,federal training center camp (dalori i camp),11.77857,13.22406,formal,Camp/Camp-like settings,12/09/2015,unknown,Public/Government,emergency shelter,insurgency,borno,konduga,dalori / wanori,borno,bama,sabsabwa / soye/ bulongu,storm," 4,091 "," 23,893 "
Borno,NGA008,Konduga,NGA008016,Dalori / Wanori,Collective Settlement/Centre,Spontaneous,BO_S108,yawuri camp,11.77588,13.21718,informal,Camp/Camp-like settings,18/12/2016,unknown,private building,Self-made/Makeshift shelter,insurgency,borno,jere,alau,borno,jere,alau,fire, 548 ," 1,905 "
Borno,NGA008,Konduga,NGA008016,Dalori / Wanori,Camp,Spontaneous,BO_S172,fulatari,11.77033,13.22645,informal,Camp/Camp-like settings,16/07/2016,unknown,private building,Self-made/Makeshift shelter,insurgency,borno,bama,mbuliya / goniri / siraja,borno,konduga,kelumiri / ngalbi amari / yale,fire, 369 ," 1,803 "
Borno,NGA008,Konduga,NGA008016,Dalori / Wanori,Collective Settlement/Centre,Spontaneous,BO_S200,shuwari,11.78066,13.21456,informal,Camp/Camp-like settings,09/12/2016,unknown,private building,Self-made/Makeshift shelter,insurgency,borno,gwoza,ngoshe,borno,jere,alau,storm, 161 , 819 
Borno,NGA008,Konduga,NGA008016,Dalori / Wanori,Collective Settlement/Centre,Spontaneous,BO_S201,dalorima camp,11.748,13.26339,informal,Camp/Camp-like settings,01/01/2015,unknown,private building,Self-made/Makeshift shelter,insurgency,borno,konduga,dalori / wanori,borno,jere,alau,fire, 160 , 654 
Borno,NGA008,Konduga,NGA008016,Dalori / Wanori,Collective Settlement/Centre,Spontaneous,BO_S202,fannamri,11.74833,13.26013,informal,Camp/Camp-like settings,16/07/2016,unknown,private building,Self-made/Makeshift shelter,insurgency,borno,jere,alau,borno,konduga,kawuri,fire, 210 , 773 
Borno,NGA008,Konduga,NGA008016,Dalori / Wanori,Camp,Spontaneous,BO_S267,shuwari gaya,11.78495,13.21019,informal,Camp/Camp-like settings,01/12/2017,unknown,private building,Self-made/Makeshift shelter,insurgency,borno,bama,lawanti / malam / mastari / abba,borno,konduga,kelumiri / ngalbi amari / yale,fire, 50 , 253 
Borno,NGA008,Konduga,NGA008016,Dalori / Wanori,Collective Settlement/Centre,Spontaneous,BO_S021,250 housing estate (dalori 2),11.77026,13.23947,formal,Camp/Camp-like settings,06/07/2015,unknown,Public/Government,emergency shelter,insurgency,borno,bama,shehuri / hausari / mairi,borno,gwoza,gwoza town gadamayo,storm," 2,721 "," 11,580 "
Borno,NGA008,Konduga,NGA008016,Konduga,Collective Settlement/Centre,Planned,BO_S058,boarding school,11.66453,13.39605,formal,Camp/Camp-like settings,15/08/2015,unknown,Public/Government,emergency shelter,insurgency,borno,konduga,konduga,borno,konduga,konduga,fire," 3,020 "," 15,412 "
Borno,NGA008,Konduga,NGA008016,Konduga,Collective Settlement/Centre,Planned,BO_S077,kalari abule,11.73458,13.28333,informal,Camp/Camp-like settings,12/09/2015,unknown,private building,Self-made/Makeshift shelter,insurgency,borno,konduga,dalori / wanori,borno,konduga,dalori / wanori,fire, 758 ," 4,853 "
Borno,NGA008,Konduga,NGA008016,Konduga,Collective Settlement/Centre,Planned,BO_S078,mashamari kuluye,11.66563,13.38711,informal,Camp/Camp-like settings,01/01/2016,unknown,Public/Government,Self-made/Makeshift shelter,insurgency,borno,bama,dipchari / jere / dar-jamal / ko,borno,konduga,mairamri / yeleri / bazamri,fire," 1,231 "," 6,153 "
Borno,NGA008,Mafa,NGA008019,Mafa,Collective Settlement/Centre,Planned,BO_S204,government girls' secondary school,11.92033,13.59153,formal,Camp/Camp-like settings,16/06/2016,unknown,Public/Government,emergency shelter,insurgency,borno,mafa,mafa,borno,mafa,mafa,none ," 4,812 "," 28,872 "
Borno,NGA008,Magumeri,NGA008020,Gaji Ganna  I,Camp,Spontaneous,BO_S190,ggss gajiganna camp,12.25888,13.10666,informal,Camp/Camp-like settings,11/09/2016,unknown,Public/Government,school building,insurgency,borno,magumeri,furram,borno,magumeri,borno yesu,fire, 693 ," 3,464 "
Borno,NGA008,Magumeri,NGA008020,Gaji Ganna  I,Collective Settlement/Centre,Spontaneous,BO_S192,ggss quarters,12.25395,13.09907,informal,Camp/Camp-like settings,01/09/2016,unknown,Public/Government,school building,insurgency,borno,magumeri,gaji ganna  i,borno,magumeri,gaji ganna  ii,fire, 339 ," 1,695 "
Borno,NGA008,Magumeri,NGA008020,Gaji Ganna  I,Collective Settlement/Centre,Spontaneous,BO_S206,malayi camp,12.25138,13.10208,informal,Camp/Camp-like settings,04/07/2017,unknown,Public/Government,government building,insurgency,borno,magumeri,gaji ganna  i,borno,magumeri,furram,fire, 243 ," 1,215 "
Borno,NGA008,Magumeri,NGA008020,Gaji Ganna  I,Collective Settlement/Centre,Spontaneous,BO_S264,bare camp,12.26328,13.1046,informal,Camp/Camp-like settings,29/11/2021,unknown,Public/Government,open lot,insurgency,borno,magumeri,gaji ganna  ii,borno,nganzai,miye,fire, 486 ," 2,429 "
Borno,NGA008,Magumeri,NGA008020,Magumeri,Camp,Spontaneous,BO_S365,Camp A,12.12092,12.82561,informal,Camp/Camp-like settings,08/04/2021,unknown,Public/Government,emergency shelter,insurgency,borno,magumeri,furram,borno,gubio,felo,none , 148 , 739 
Borno,NGA008,Magumeri,NGA008020,Magumeri,Collective Settlement/Centre,Spontaneous,BO_S366,Camp B,12.11887,12.83561,informal,Camp/Camp-like settings,08/07/2021,unknown,Public/Government,Self-made/Makeshift shelter,insurgency,borno,magumeri,furram,borno,magumeri,kareram,none , 143 , 715 
Borno,NGA008,Maiduguri M. C.,NGA008021,Bolori  I,Collective Settlement/Centre,Spontaneous,BO_S014,teachers village,11.84379,13.10027,formal,Camp/Camp-like settings,05/01/2015,less_than_2m,Public/Government,government building,insurgency,borno,kukawa,baga,borno,ngala,gamboru 'b',none ," 1,916 "," 9,092 "
Borno,NGA008,Maiduguri M. C.,NGA008021,Bolori  I,Collective Settlement/Centre,Spontaneous,BO_S024,garba buzu qrt,11.85049,13.11067,informal,Camp/Camp-like settings,10/01/2015,unknown,private building,individual house,insurgency,borno,mafa,loskuri,borno,mafa,mafa,none , 331 ," 2,315 "
Borno,NGA008,Maiduguri M. C.,NGA008021,Bolori  I,Collective Settlement/Centre,Spontaneous,BO_S025,sabongari buzu camp,11.84707,13.10912,informal,Camp/Camp-like settings,10/06/2014,unknown,private building,individual house,insurgency,borno,mafa,loskuri,borno,konduga,konduga,none , 137 , 884 
Borno,NGA008,Maiduguri M. C.,NGA008021,Bolori  I,Collective Settlement/Centre,Spontaneous,BO_S042,federal low cost chezcoan camp,11.86622,13.11681,informal,Camp/Camp-like settings,10/07/2014,unknown,private building,school building,insurgency,borno,kukawa,baga,borno,mobbar,damasak,none , 159 , 818 
Borno,NGA008,Maiduguri M. C.,NGA008021,Bolori  I,Collective Settlement/Centre,Spontaneous,BO_S043,living faith church,11.83726,13.10075,informal,Camp/Camp-like settings,04/01/2015,unknown,private building,school building,insurgency,borno,gwoza,gwoza town gadamayo,borno,gwoza,gwoza town gadamayo,none , 18 , 116 
Borno,NGA008,Maiduguri M. C.,NGA008021,Bolori  I,Collective Settlement/Centre,Spontaneous,BO_S084,bullet quarters camp,11.8558,13.11008,informal,Camp/Camp-like settings,10/04/2014,unknown,private building,rented house,insurgency,borno,kukawa,baga,,,,none , 27 , 154 
Borno,NGA008,Maiduguri M. C.,NGA008021,Bolori  I,Collective Settlement/Centre,Spontaneous,BO_S287,sabon gari ii,11.84734,13.11052,informal,Camp/Camp-like settings,08/04/2014,unknown,private building,emergency shelter,insurgency,borno,mafa,loskuri,borno,konduga,konduga,none , 90 , 651 
Borno,NGA008,Maiduguri M. C.,NGA008021,Bolori  I,Collective Settlement/Centre,Spontaneous,BO_S320,shuwari 5 camp,11.87609,13.11325,informal,Camp/Camp-like settings,09/09/2018,unknown,private building,emergency shelter,insurgency,borno,kukawa,kukawa,borno,abadam,mallamfatori kessa,none ," 1,061 "," 5,466 "
Borno,NGA008,Maiduguri M. C.,NGA008021,Bolori  I,Camp,Spontaneous,BO_S329,african mission global,11.89475,13.08883,informal,Camp/Camp-like settings,04/01/2020,unknown,private building,emergency shelter,insurgency,borno,gwoza,gwoza town gadamayo,borno,gwoza,pulka/bokko,fire, 49 , 161 
Borno,NGA008,Maiduguri M. C.,NGA008021,Bolori  I,Camp,Spontaneous,BO_S336,abbari camp,11.88656,13.11039,informal,Camp/Camp-like settings,10/01/2020,unknown,private building,Self-made/Makeshift shelter,insurgency,borno,kukawa,kukawa,borno,guzamala,gudumbali east,none , 18 , 112 
Borno,NGA008,Maiduguri M. C.,NGA008021,Bolori  I,Camp,Spontaneous,BO_S344,babban gida 2,11.85971,13.11917,informal,Camp/Camp-like settings,10/01/2014,unknown,private building,individual house,insurgency,borno,kukawa,kukawa,borno,konduga,konduga,flood, 26 , 172 
Borno,NGA008,Maiduguri M. C.,NGA008021,Bolori  I,Camp,Spontaneous,BO_S345,babban gida 1,11.8587,13.11918,informal,Camp/Camp-like settings,07/11/2014,unknown,private building,individual house,insurgency,borno,kukawa,baga,borno,bama,shehuri / hausari / mairi,none , 48 , 254 
Borno,NGA008,Maiduguri M. C.,NGA008021,Bolori  I,Camp,Spontaneous,BO_S346,dubai camp,11.88805,13.1007,informal,Camp/Camp-like settings,27/07/2020,unknown,private building,Self-made/Makeshift shelter,insurgency,borno,magumeri,hoyo / chin gowa,,,,none , 27 , 146 
Borno,NGA008,Maiduguri M. C.,NGA008021,Bolori  I,Camp,Spontaneous,BO_S347,gidan gawo,11.85843,13.12145,informal,Camp/Camp-like settings,08/11/2014,unknown,private building,individual house,insurgency,borno,kukawa,baga,borno,damboa,damboa,none , 50 , 291 
Borno,NGA008,Maiduguri M. C.,NGA008021,Bolori  Ii,Collective Settlement/Centre,Spontaneous,BO_S130,dogon gida camp,11.87863,13.11927,informal,Camp/Camp-like settings,13/09/2014,unknown,private building,rented house,insurgency,borno,kukawa,baga,borno,bama,kasugula,none , 37 , 248 
Borno,NGA008,Maiduguri M. C.,NGA008021,Bolori  Ii,Camp,Spontaneous,BO_S157,dala standard (umara bolori),11.88072,13.11906,informal,Camp/Camp-like settings,10/08/2014,unknown,private building,emergency shelter,insurgency,borno,kukawa,baga,borno,guzamala,gudumbali east,none , 450 ," 2,252 "
Borno,NGA008,Maiduguri M. C.,NGA008021,Bolori  Ii,Collective Settlement/Centre,Spontaneous,BO_S188,karantina,11.87386,13.13988,informal,Camp/Camp-like settings,15/09/2014,unknown,private building,rented house,insurgency,borno,bama,shehuri / hausari / mairi,borno,marte,marte,none , 23 , 111 
Borno,NGA008,Maiduguri M. C.,NGA008021,Bolori  Ii,Collective Settlement/Centre,Spontaneous,BO_S296,real form camp,11.86493,13.14631,informal,Camp/Camp-like settings,14/06/2018,unknown,private building,emergency shelter,insurgency,borno,bama,kasugula,borno,mobbar,damasak,none , 12 , 72 
Borno,NGA008,Maiduguri M. C.,NGA008021,Bolori  Ii,Collective Settlement/Centre,Spontaneous,BO_S312,umarari borehole camp,11.87084,13.13618,informal,Camp/Camp-like settings,28/12/2018,unknown,private building,Host Family house,insurgency,borno,kukawa,baga,borno,kukawa,baga,none , 8 , 28 
Borno,NGA008,Maiduguri M. C.,NGA008021,Bolori  Ii,Collective Settlement/Centre,Spontaneous,BO_S318,doron baga camp,11.88512,13.12023,informal,Camp/Camp-like settings,02/01/2019,unknown,private building,emergency shelter,insurgency,borno,kukawa,doro / duguri,borno,kukawa,doro / duguri,none , 158 , 881 
Borno,NGA008,Maiduguri M. C.,NGA008021,Bolori  Ii,Collective Settlement/Centre,Spontaneous,BO_S323,doro camp,11.88147,13.11682,informal,Camp/Camp-like settings,28/12/2018,unknown,private building,emergency shelter,insurgency,borno,kukawa,doro / duguri,borno,kukawa,baga,none , 475 ," 2,944 "
Borno,NGA008,Maiduguri M. C.,NGA008021,Bolori  Ii,Collective Settlement/Centre,Spontaneous,BO_S349,tausayi idps camp,11.88488,13.1224,informal,Camp/Camp-like settings,28/01/2020,unknown,private building,emergency shelter,insurgency,borno,kukawa,baga,borno,marte,kirenowa,none , 418 ," 2,280 "
Borno,NGA008,Maiduguri M. C.,NGA008021,Bulablin,Camp,Spontaneous,BO_S231,biafra camp,11.83289,13.16105,informal,Camp/Camp-like settings,17/02/2016,unknown,private building,emergency shelter,insurgency,borno,konduga,dawa east / malari / kangamari,borno,konduga,dawa east / malari / kangamari,flood, 170 , 908 
Borno,NGA008,Maiduguri M. C.,NGA008021,Gamboru Liberty,Camp,Spontaneous,BO_S048,kasuwa shanu gidan kifi,11.85775,13.18104,informal,Camp/Camp-like settings,12/12/2014,unknown,private building,Host Family house,insurgency,borno,monguno,monguno,borno,abadam,yituwa,none , 39 , 188 
Borno,NGA008,Maiduguri M. C.,NGA008021,Gamboru Liberty,Collective Settlement/Centre,Spontaneous,BO_S147,allamin dagash garage,11.85737,13.16797,informal,Camp/Camp-like settings,09/04/2016,unknown,private building,emergency shelter,insurgency,borno,marte,musune,borno,gwoza,ngoshe,none , 90 , 420 
Borno,NGA008,Maiduguri M. C.,NGA008021,Gwange  Ii,Camp,Spontaneous,BO_S343,UMAR ALI GARDENER CAMP,11.83515,13.17593,informal,Camp/Camp-like settings,12/02/2015,unknown,Public/Government,emergency shelter,insurgency,borno,konduga,dalori / wanori,borno,konduga,konduga,none , 41 , 164 
Borno,NGA008,Maiduguri M. C.,NGA008021,Lamisula/Jabba Mari,Camp,Spontaneous,BO_S012,eyn can centre camp,11.84401,13.13692,formal,Camp/Camp-like settings,27/10/2014,unknown,Public/Government,emergency shelter,insurgency,borno,gwoza,ngoshe,borno,askira / uba,uba,none , 376 ," 2,240 "
Borno,NGA008,Maiduguri M. C.,NGA008021,Lamisula/Jabba Mari,Camp,Spontaneous,BO_S039,dujima camp,11.8494,13.14018,informal,Camp/Camp-like settings,27/06/2014,unknown,private building,Host Family house,insurgency,borno,gwoza,ashigashiya,borno,bama,kasugula,none , 55 , 301 
Borno,NGA008,Maiduguri M. C.,NGA008021,Lamisula/Jabba Mari,Camp,Spontaneous,BO_S040,dcc shuwari camp,11.84407,13.11736,formal,Camp/Camp-like settings,17/04/2014,unknown,Public/Government,emergency shelter,insurgency,borno,gwoza,ngoshe,borno,askira / uba,dille / huyum,none , 216 ," 1,077 "
Borno,NGA008,Maiduguri M. C.,NGA008021,Lamisula/Jabba Mari,Camp,Spontaneous,BO_S086,grema mohammed camp,11.85561,13.14298,informal,Camp/Camp-like settings,13/02/2014,unknown,private building,Host Family house,insurgency,borno,marte,borsori,borno,monguno,mintar,none , 29 , 219 
Borno,NGA008,Maiduguri M. C.,NGA008021,Lamisula/Jabba Mari,Camp,Spontaneous,BO_S282,old inec camp,11.85983,13.15656,formal,Camp/Camp-like settings,21/07/2014,unknown,Public/Government,government building,insurgency,borno,marte,musune,borno,marte,marte,none , 41 , 184 
Borno,NGA008,Maiduguri M. C.,NGA008021,Lamisula/Jabba Mari,Camp,Spontaneous,BO_S284,marte camp,11.85899,13.15488,formal,Camp/Camp-like settings,09/12/2019,unknown,private building,Host Family house,insurgency,borno,marte,marte,borno,mafa,mujigine,none , 31 , 145 
Borno,NGA008,Maiduguri M. C.,NGA008021,Lamisula/Jabba Mari,Camp,Spontaneous,BO_S285,railway terminus camp,11.86192,13.15808,formal,Camp/Camp-like settings,11/07/2015,unknown,Public/Government,Self-made/Makeshift shelter,insurgency,borno,marte,marte,borno,kukawa,baga,none , 62 , 309 
Borno,NGA008,Maiduguri M. C.,NGA008021,Lamisula/Jabba Mari,Camp,Spontaneous,BO_S286,pampas street camp,11.86125,13.15526,informal,Camp/Camp-like settings,04/09/2015,unknown,private building,Self-made/Makeshift shelter,insurgency,borno,mafa,mafa,borno,marte,musune,none , 51 , 305 
Borno,NGA008,Maiduguri M. C.,NGA008021,Limanti,Camp,Spontaneous,BO_S266,kangarmaka camp,11.84341,13.16508,informal,Camp/Camp-like settings,01/02/2016,unknown,private building,emergency shelter,insurgency,borno,bama,kasugula,borno,konduga,konduga,none , 49 , 220 
Borno,NGA008,Maiduguri M. C.,NGA008021,Maisandari,Collective Settlement/Centre,Spontaneous,BO_S019,st. hillary,11.78912,13.13932,informal,Camp/Camp-like settings,13/12/2016,unknown,private building,Self-made/Makeshift shelter,insurgency,borno,gwoza,pulka/bokko,borno,gwoza,gwoza wakane / bulabulin,none , 41 , 305 
Borno,NGA008,Maiduguri M. C.,NGA008021,Maisandari,Collective Settlement/Centre,Spontaneous,BO_S103,kaduwa ii,11.78975,13.13247,informal,Camp/Camp-like settings,13/11/2014,unknown,private building,Self-made/Makeshift shelter,insurgency,borno,konduga,masba / dalwa west,borno,konduga,nyaleri/sandia/yejiwa,none , 55 , 296 
Borno,NGA008,Maiduguri M. C.,NGA008021,Maisandari,Collective Settlement/Centre,Spontaneous,BO_S105,ali dawari i camp,11.79064,13.13281,informal,Camp/Camp-like settings,04/04/2015,unknown,private building,Self-made/Makeshift shelter,insurgency,borno,konduga,konduga,borno,konduga,dawa east / malari / kangamari,none , 31 , 133 
Borno,NGA008,Maiduguri M. C.,NGA008021,Maisandari,Collective Settlement/Centre,Spontaneous,BO_S107,bulabulin gaura,11.8004,13.13365,informal,Camp/Camp-like settings,15/06/2014,unknown,private building,Self-made/Makeshift shelter,insurgency,borno,konduga,dawa east / malari / kangamari,borno,konduga,masba / dalwa west,none , 29 , 131 
Borno,NGA008,Maiduguri M. C.,NGA008021,Maisandari,Collective Settlement/Centre,Spontaneous,BO_S115,ajiri i,11.79371,13.13304,informal,Camp/Camp-like settings,17/11/2014,unknown,private building,Self-made/Makeshift shelter,insurgency,borno,konduga,sojiri/ nguro - nguro,borno,konduga,masba / dalwa west,none , 79 , 450 
Borno,NGA008,Maiduguri M. C.,NGA008021,Maisandari,Collective Settlement/Centre,Spontaneous,BO_S116,awulam camp,11.7899,13.13424,informal,Camp/Camp-like settings,17/06/2014,unknown,private building,emergency shelter,insurgency,borno,kaga,wassaram,borno,konduga,masba / dalwa west,none , 51 , 258 
Borno,NGA008,Maiduguri M. C.,NGA008021,Maisandari,Collective Settlement/Centre,Spontaneous,BO_S117,yajiwa camp kusheri,11.78872,13.13063,informal,Camp/Camp-like settings,11/11/2014,unknown,private building,Self-made/Makeshift shelter,insurgency,borno,konduga,nyaleri/sandia/yejiwa,borno,konduga,nyaleri/sandia/yejiwa,none , 243 ," 1,476 "
Borno,NGA008,Maiduguri M. C.,NGA008021,Maisandari,Collective Settlement/Centre,Spontaneous,BO_S148,abulam,11.79165,13.13148,informal,Camp/Camp-like settings,28/10/2014,unknown,private building,rented house,insurgency,borno,konduga,masba / dalwa west,borno,konduga,nyaleri/sandia/yejiwa,none , 17 , 130 
Borno,NGA008,Maiduguri M. C.,NGA008021,Maisandari,Camp,Spontaneous,BO_S155,busugu camp,11.7927,13.13246,informal,Camp/Camp-like settings,14/11/2014,unknown,private building,Self-made/Makeshift shelter,insurgency,borno,konduga,masba / dalwa west,borno,konduga,masba / dalwa west,none , 60 , 366 
Borno,NGA008,Maiduguri M. C.,NGA008021,Maisandari,Collective Settlement/Centre,Spontaneous,BO_S199,kuru camp,11.79939,13.13618,informal,Camp/Camp-like settings,04/06/2015,unknown,private building,Self-made/Makeshift shelter,insurgency,borno,konduga,nyaleri/sandia/yejiwa,borno,konduga,mairamri / yeleri / bazamri,none , 91 , 636 
Borno,NGA008,Maiduguri M. C.,NGA008021,Maisandari,Camp,Spontaneous,BO_S225,ajiri ii,11.79117,13.13416,informal,Camp/Camp-like settings,02/02/2016,unknown,private building,emergency shelter,insurgency,borno,konduga,sojiri/ nguro - nguro,borno,konduga,nyaleri/sandia/yejiwa,none , 41 , 232 
Borno,NGA008,Maiduguri M. C.,NGA008021,Maisandari,Camp,Spontaneous,BO_S232,goni kyarimi,11.79683,13.11242,informal,Camp/Camp-like settings,,unknown,private building,Self-made/Makeshift shelter,insurgency,borno,konduga,kawuri,borno,konduga,masba / dalwa west,none , 72 , 388 
Borno,NGA008,Maiduguri M. C.,NGA008021,Maisandari,Camp,Spontaneous,BO_S251,umarari camp,11.80201,13.11598,informal,Camp/Camp-like settings,11/01/2015,unknown,private building,emergency shelter,insurgency,borno,konduga,masba / dalwa west,borno,damboa,damboa,none , 103 , 551 
Borno,NGA008,Maiduguri M. C.,NGA008021,Maisandari,Camp,Spontaneous,BO_S258,fulatari farin ruwa,11.80245,13.11295,informal,Camp/Camp-like settings,21/03/2015,unknown,private building,emergency shelter,insurgency,borno,konduga,masba / dalwa west,borno,konduga,kawuri,none , 42 , 189 
Borno,NGA008,Maiduguri M. C.,NGA008021,Maisandari,Camp,Spontaneous,BO_S265,40 house camp,11.78962,13.13348,informal,Camp/Camp-like settings,12/06/2014,unknown,private building,emergency shelter,insurgency,borno,konduga,masba / dalwa west,borno,gwoza,gwoza town gadamayo,none , 40 , 249 
Borno,NGA008,Maiduguri M. C.,NGA008021,Maisandari,Collective Settlement/Centre,Spontaneous,BO_S272,abatchari camp,11.79443,13.1332,informal,Camp/Camp-like settings,12/04/2014,unknown,private building,Self-made/Makeshift shelter,insurgency,borno,konduga,masba / dalwa west,borno,konduga,masba / dalwa west,none , 31 , 214 
Borno,NGA008,Maiduguri M. C.,NGA008021,Maisandari,Collective Settlement/Centre,Spontaneous,BO_S304,yejiwa borehole camp,11.78785,13.1313,informal,Camp/Camp-like settings,21/09/2014,unknown,private building,Self-made/Makeshift shelter,insurgency,borno,konduga,nyaleri/sandia/yejiwa,borno,konduga,masba / dalwa west,none , 85 , 436 
Borno,NGA008,Maiduguri M. C.,NGA008021,Maisandari,Collective Settlement/Centre,Spontaneous,BO_S305,borgozo camp,11.78867,13.13318,informal,Camp/Camp-like settings,16/02/2015,unknown,private building,Self-made/Makeshift shelter,insurgency,borno,kaga,borgozo,,,,none , 21 , 164 
Borno,NGA008,Maiduguri M. C.,NGA008021,Maisandari,Camp,Spontaneous,BO_S316,mashidimami,11.80055,13.12224,informal,Camp/Camp-like settings,18/12/2018,unknown,private building,Self-made/Makeshift shelter,insurgency,borno,konduga,masba / dalwa west,borno,konduga,nyaleri/sandia/yejiwa,none , 100 , 621 
Borno,NGA008,Maiduguri M. C.,NGA008021,Maisandari,Camp,Spontaneous,BO_S317,stadium camp,11.82222,13.11555,formal,Camp/Camp-like settings,19/03/2019,unknown,Public/Government,emergency shelter,insurgency,borno,kukawa,baga,borno,konduga,sojiri/ nguro - nguro,none ," 2,478 "," 11,669 "
Borno,NGA008,Maiduguri M. C.,NGA008021,Maisandari,Collective Settlement/Centre,Spontaneous,BO_S321,bulamari ahmadu camp,11.79538,13.12259,informal,Camp/Camp-like settings,12/06/2019,unknown,private building,Self-made/Makeshift shelter,insurgency,borno,jere,bale galtimari,,,,none , 41 , 311 
Borno,NGA008,Maiduguri M. C.,NGA008021,Maisandari,Camp,Spontaneous,BO_S331,dogon iche camp,11.80304,13.11886,informal,Camp/Camp-like settings,02/01/2019,unknown,private building,Self-made/Makeshift shelter,insurgency,borno,jere,bale galtimari,borno,jere,mairi,none , 143 , 757 
Borno,NGA008,Maiduguri M. C.,NGA008021,Maisandari,Collective Settlement/Centre,Spontaneous,BO_S337,mashidimami ii,11.79791,13.12197,informal,Camp/Camp-like settings,10/06/2020,unknown,private building,Self-made/Makeshift shelter,insurgency,borno,jere,bale galtimari,,,,none , 64 , 372 
Borno,NGA008,Maiduguri M. C.,NGA008021,Maisandari,Camp,Spontaneous,BO_S348,filin ball camp,11.78984,13.13035,informal,Camp/Camp-like settings,12/09/2018,unknown,private building,Self-made/Makeshift shelter,insurgency,borno,konduga,masba / dalwa west,borno,konduga,mairamri / yeleri / bazamri,none , 192 , 943 
Borno,NGA008,Maiduguri M. C.,NGA008021,Maisandari,Camp,Spontaneous,BO_S368,sabon koori,11.79873,13.11313,informal,Camp/Camp-like settings,,unknown,private building,Self-made/Makeshift shelter,insurgency,borno,konduga,masba / dalwa west,borno,damboa,mulgwai / kopchi,none , 116 , 594 
Borno,NGA008,Maiduguri M. C.,NGA008021,Maisandari,Collective Settlement/Centre,Spontaneous,BO_S369,sare 1 camp,11.78794,13.13983,informal,Camp/Camp-like settings,20/01/2021,unknown,private building,Self-made/Makeshift shelter,insurgency,borno,konduga,nyaleri/sandia/yejiwa,borno,konduga,nyaleri/sandia/yejiwa,none , 131 , 733 
Borno,NGA008,Maiduguri M. C.,NGA008021,Maisandari,Camp,Spontaneous,BO_S370,sulumri bakin kwalta,11.80203,13.12044,informal,Camp/Camp-like settings,17/11/2019,unknown,private building,emergency shelter,insurgency,borno,konduga,sojiri/ nguro - nguro,borno,damboa,damboa,none , 102 , 533 
Borno,NGA008,Maiduguri M. C.,NGA008021,Maisandari,Collective Settlement/Centre,Spontaneous,BO_S375,suleimanti musanti camp,11.79781,13.1387,informal,Camp/Camp-like settings,25/07/2021,unknown,private building,Self-made/Makeshift shelter,insurgency,borno,konduga,dawa east / malari / kangamari,borno,konduga,masba / dalwa west,none , 31 , 153 
Borno,NGA008,Maiduguri M. C.,NGA008021,Maisandari,Collective Settlement/Centre,Spontaneous,BO_S379,SULEIMANTI MODU KUMBU CAMP,11.79586,13.1358,informal,Camp/Camp-like settings,02/09/2021,unknown,private building,Self-made/Makeshift shelter,insurgency,borno,konduga,nyaleri/sandia/yejiwa,borno,konduga,masba / dalwa west,none , 28 , 122 
Borno,NGA008,Maiduguri M. C.,NGA008021,Shehuri  North,Collective Settlement/Centre,Spontaneous,BO_S053,kawar maila,11.85571,13.16191,informal,Camp/Camp-like settings,25/09/2014,unknown,private building,emergency shelter,insurgency,borno,bama,kasugula,borno,konduga,konduga,none , 233 ," 1,330 "
Borno,NGA008,Mobbar,NGA008023,Damasak,Camp,Spontaneous,BO_S355,gsss camp damasak,13.10992,12.51543,formal,Camp/Camp-like settings,21/04/2021,unknown,Public/Government,school building,insurgency,borno,abadam,mallamfatori kessa,borno,mobbar,gashagar,none ," 1,847 "," 6,781 "
Borno,NGA008,Monguno,NGA008024,Monguno,Collective Settlement/Centre,Spontaneous,BO_S059,government girls secondary school (ggss),12.67954,13.62306,formal,Camp/Camp-like settings,14/08/2015,unknown,Public/Government,emergency shelter,insurgency,borno,marte,borsori,borno,monguno,monguno,fire," 5,784 "," 20,178 "
Borno,NGA008,Monguno,NGA008024,Monguno,Collective Settlement/Centre,Spontaneous,BO_S091,ngurno,12.68552,13.62026,formal,Camp/Camp-like settings,12/12/2015,unknown,Public/Government,Self-made/Makeshift shelter,insurgency,borno,monguno,ngurno,borno,marte,alla  lawanti,none ," 1,568 "," 5,100 "
Borno,NGA008,Monguno,NGA008024,Monguno,Collective Settlement/Centre,Spontaneous,BO_S092,kuya primary school,12.66375,13.61947,formal,Camp/Camp-like settings,01/07/2015,unknown,Public/Government,emergency shelter,insurgency,borno,monguno,kaguram,borno,marte,musune,fire," 2,725 "," 9,556 "
Borno,NGA008,Monguno,NGA008024,Monguno,Collective Settlement/Centre,Spontaneous,BO_S094,gana ali camp,12.67141,13.62468,formal,Camp/Camp-like settings,01/07/2015,unknown,private building,Self-made/Makeshift shelter,insurgency,borno,marte,borsori,borno,monguno,monguno,none , 985 ," 3,622 "
Borno,NGA008,Monguno,NGA008024,Monguno,Collective Settlement/Centre,Spontaneous,BO_S096,gardener low cost,12.67214,13.61943,formal,Camp/Camp-like settings,05/12/2016,unknown,private building,Self-made/Makeshift shelter,insurgency,borno,marte,kulli,borno,marte,ala,none , 237 , 908 
Borno,NGA008,Monguno,NGA008024,Monguno,Collective Settlement/Centre,Spontaneous,BO_S097,water board,12.68426,13.61469,formal,Camp/Camp-like settings,20/09/2015,unknown,Public/Government,emergency shelter,insurgency,borno,kukawa,kekeno,borno,marte,marte,fire," 8,574 "," 27,430 "
Borno,NGA008,Monguno,NGA008024,Monguno,Collective Settlement/Centre,Spontaneous,BO_S098,government day secondary school (gdss),12.67309,13.60536,formal,Camp/Camp-like settings,09/01/2015,unknown,Public/Government,Self-made/Makeshift shelter,insurgency,borno,monguno,kaguram,borno,marte,ala,none , 969 ," 3,617 "
Borno,NGA008,Monguno,NGA008024,Monguno,Collective Settlement/Centre,Spontaneous,BO_S099,nrc 1 & 2,12.66615,13.62409,formal,Camp/Camp-like settings,01/08/2015,unknown,Public/Government,Self-made/Makeshift shelter,insurgency,borno,marte,borsori,borno,monguno,mintar,none ," 1,223 "," 4,266 "
Borno,NGA008,Monguno,NGA008024,Monguno,Collective Settlement/Centre,Spontaneous,BO_S133,gssss monguno,12.68006,13.61071,formal,Camp/Camp-like settings,22/06/2015,unknown,Public/Government,emergency shelter,insurgency,borno,monguno,mintar,borno,kukawa,kekeno,fire," 6,875 "," 22,947 "
Borno,NGA008,Monguno,NGA008024,Monguno,Collective Settlement/Centre,Spontaneous,BO_S177,vertinary,12.67,13.60701,formal,Camp/Camp-like settings,01/09/2016,unknown,Public/Government,Self-made/Makeshift shelter,insurgency,borno,monguno,wulo,borno,marte,marte,none , 754 ," 2,939 "
Borno,NGA008,Monguno,NGA008024,Monguno,Camp,Planned,BO_S203,fulatari camp,12.67535,13.60172,formal,Camp/Camp-like settings,07/07/2017,unknown,private building,emergency shelter,insurgency,borno,kukawa,kekeno,borno,marte,kirenowa,fire," 2,369 "," 8,837 "
Borno,NGA008,Monguno,NGA008024,Monguno,Collective Settlement/Centre,Spontaneous,BO_S230,stadium camp monguno,12.66566,13.6268,formal,Camp/Camp-like settings,20/05/2017,unknown,Public/Government,emergency shelter,insurgency,borno,marte,kulli,borno,marte,ala,fire, 851 ," 3,012 "
Borno,NGA008,Ngala,NGA008025,Ngala Ward,Camp,Planned,BO_S135,international school camp,12.35897,14.16962,formal,Camp/Camp-like settings,,unknown,Public/Government,emergency shelter,insurgency,borno,ngala,ngala ward,borno,ngala,ngala ward,none ," 10,170 "," 40,682 "
Borno,NGA008,Ngala,NGA008025,Ngala Ward,Camp,Planned,BO_S243,arabic village camp,12.34801,14.19412,formal,Camp/Camp-like settings,,unknown,Public/Government,emergency shelter,insurgency,borno,ngala,ndufu,borno,kala balge,mada,none ," 6,538 "," 29,680 "
Borno,NGA008,Ngala,NGA008025,Ngala Ward,Camp,Planned,BO_S333,zullum camp,12.35231,14.17489,formal,Camp/Camp-like settings,,unknown,Public/Government,emergency shelter,insurgency,borno,ngala,wulgo,borno,ngala,old gamboru 'a',none ," 1,029 "," 4,432 "
Borno,NGA008,Ngala,NGA008025,Ngala Ward,Camp,Planned,BO_S356,kaigama usman camp,12.34825,14.18891,formal,Camp/Camp-like settings,,unknown,Public/Government,emergency shelter,insurgency,borno,ngala,ndufu,borno,kala balge,mada,none , 617 ," 2,218 "
Yobe,NGA036,Damaturu,NGA036003,Damaturu Central,Camp,Spontaneous,YB_S018,abari y.b.c,11.72993,11.9805,informal,Camp/Camp-like settings,01/04/2015,unknown,Public/Government,Self-made/Makeshift shelter,insurgency,yobe,gujba,gujba,yobe,gujba,ngurbuwa,none , 66 , 396 
Yobe,NGA036,Damaturu,NGA036003,Damaturu Central,Collective Settlement/Centre,Spontaneous,YB_S021,bukar abba house,11.72985,11.98183,informal,Camp/Camp-like settings,01/01/2016,unknown,private building,individual house,insurgency,yobe,gujba,goniri,yobe,gujba,goniri,none , 70 , 420 
Yobe,NGA036,Damaturu,NGA036003,Gabir/Maduri,Camp,Spontaneous,YB_S005,KASAISA VILLAGE,11.6861,12.04778,informal,Camp/Camp-like settings,15/06/2015,unknown,Public/Government,emergency shelter,insurgency,yobe,gujba,mallam dunari,yobe,gujba,gujba,none , 361 ," 2,166 "
Yobe,NGA036,Damaturu,NGA036003,Kukareta/Warsala,Collective Settlement/Centre,Spontaneous,YB_S003,kukareta camp,11.76023,12.23336,informal,Camp/Camp-like settings,28/03/2016,unknown,Public/Government,Self-made/Makeshift shelter,insurgency,yobe,gujba,gujba,borno,magumeri,borno yesu,none ," 1,270 "," 7,620 "
Yobe,NGA036,Damaturu,NGA036003,Maisandari/Waziri Ibrahim Estate,Collective Settlement/Centre,Spontaneous,YB_S004,moh'd gombe farm,11.72675,12.03584,informal,Camp/Camp-like settings,24/06/2015,unknown,Public/Government,individual house,insurgency,yobe,gujba,ngurbuwa,,,,none , 55 , 330 
Yobe,NGA036,Damaturu,NGA036003,Maisandari/Waziri Ibrahim Estate,Camp,Spontaneous,YB_S006,huri village camp,11.73905,12.01215,informal,Camp/Camp-like settings,28/01/2016,unknown,Public/Government,Self-made/Makeshift shelter,insurgency,,,,,,,none , 131 , 786 
Yobe,NGA036,Damaturu,NGA036003,Murfa Kalam,Camp,Spontaneous,YB_S026,vetenary,11.72716,11.91341,informal,Camp/Camp-like settings,01/02/2016,unknown,Public/Government,Host Family house,insurgency,yobe,gujba,gujba,borno,damboa,damboa,none , 45 , 225 
Yobe,NGA036,Damaturu,NGA036003,Nayinawa,Camp,Spontaneous,YB_S040,Buka bakwai,11.93947,11.75308,informal,Camp/Camp-like settings,06/06/2020,unknown,Public/Government,Host Family house,insurgency,yobe,gujba,gujba,borno,damboa,kafa / mafi,none , 81 , 486 
Yobe,NGA036,Fune,NGA036005,Dogon Kuka/Gishiwari/Gununu,Camp,Spontaneous,YB_S022,funai,11.67177,11.53871,informal,Camp/Camp-like settings,22/11/2015,unknown,private building,rented house,insurgency,yobe,gujba,buniyadi north / south,borno,bama,sabsabwa / soye/ bulongu,none , 56 , 366 
Yobe,NGA036,Gujba,NGA036007,Bunigari/Lawanti,Camp,Spontaneous,YB_S038,bula-bulin zindiya,11.2158,12.02479,informal,Camp/Camp-like settings,22/10/2020,unknown,Public/Government,open lot,insurgency,yobe,gujba,goniri,yobe,gujba,goniri,none , 52 , 364 
Yobe,NGA036,Gujba,NGA036007,Bunigari/Lawanti,Camp,Spontaneous,YB_S039,yarimari sabuwa,11.19567,12.01791,informal,Camp/Camp-like settings,02/02/2021,unknown,Public/Government,open lot,insurgency,yobe,gujba,bunigari/lawanti,yobe,gujba,bunigari/lawanti,none , 45 , 315 
Yobe,NGA036,Gujba,NGA036007,Gujba,Collective Settlement/Centre,Spontaneous,YB_S023,fulatari 2,11.50058,11.93129,informal,Camp/Camp-like settings,12/06/2016,unknown,Public/Government,open lot,insurgency,yobe,gujba,mallam dunari,yobe,gujba,gujba,none , 111 , 777 
Yobe,NGA036,Gujba,NGA036007,Gujba,Collective Settlement/Centre,Spontaneous,YB_S024,ajiyari 2,11.50358,11.9378,informal,Camp/Camp-like settings,12/06/2018,unknown,Public/Government,open lot,insurgency,yobe,gujba,gujba,yobe,gujba,gujba,none , 80 , 560 
Yobe,NGA036,Gujba,NGA036007,Gujba,Camp,Planned,YB_S025,katarko 2,11.56666,11.91669,informal,Camp/Camp-like settings,12/06/2018,unknown,Public/Government,open lot,insurgency,yobe,gujba,gujba,yobe,gujba,gujba,none , 41 , 287 
Yobe,NGA036,Gujba,NGA036007,Gujba,Collective Settlement/Centre,Spontaneous,YB_S035,meleri,11.51269,12.00225,informal,Camp/Camp-like settings,22/02/2020,unknown,Public/Government,open lot,insurgency,borno,konduga,konduga,borno,bama,shehuri / hausari / mairi,none , 89 , 623 
Yobe,NGA036,Gujba,NGA036007,Gujba,Camp,Planned,YB_S037,ngamma,11.51983,11.97485,informal,Camp/Camp-like settings,15/05/2020,unknown,Public/Government,open lot,insurgency,borno,konduga,konduga,borno,bama,zangeri/kash  kash,none , 120 , 840 
Yobe,NGA036,Nguru,NGA036013,Garbi/Bambori,Collective Settlement/Centre,Spontaneous,YB_S020,government college,12.87613,10.42309,informal,Camp/Camp-like settings,01/01/2014,unknown,private building,Host Family house,insurgency,borno,damboa,kafa / mafi,,,,none , 42 , 284 
Yobe,NGA036,Potiskum,NGA036014,Dogo Tebo,Camp,Spontaneous,YB_S032,gidan youghurt,11.71689,11.07653,informal,Camp/Camp-like settings,08/12/2014,unknown,private building,rented house,insurgency,borno,abadam,arege,yobe,gujba,buniyadi north / south,none , 6 , 53 
Yobe,NGA036,Yunusari,NGA036016,Bultuwa/Mar/Yaro,Camp,Spontaneous,YB_S019,unguwar kwarawa,12.98791,11.96704,informal,Camp/Camp-like settings,02/10/2014,unknown,private building,Host Family house,insurgency,borno,kukawa,baga,borno,abadam,mallamfatori kessa,flood, 19 , 112 
